City_ID,City,Lat,Lng,Max Temp,Humidity,Cloudiness,Wind Speed,Country,Date
0,lorengau,-2.0226,147.2712,27.85,80,99,4.32,PG,1670122942
1,salacgriva,57.7536,24.3581,-3.12,94,100,3.14,LV,1670122942
2,avarua,-21.2078,-159.775,28.03,83,100,3.6,CK,1670122943
3,okahandja,-21.9833,16.9167,22.13,22,75,1.32,NA,1670122943
4,cape town,-33.9258,18.4232,16.6,72,1,3.58,ZA,1670122943
5,rikitea,-23.1203,-134.9692,23.76,79,6,6.17,PF,1670122943
6,sao pedro do sul,-29.6206,-54.1789,20.51,97,21,2.76,BR,1670122944
7,hermanus,-34.4187,19.2345,14.05,70,38,2.14,ZA,1670122944
8,chokurdakh,70.6333,147.9167,-30.72,99,59,4.67,RU,1670122944
9,ajdabiya,30.7554,20.2263,14.28,48,0,5.41,LY,1670122944
10,north bend,43.4065,-124.2243,7.82,98,100,2.18,US,1670122945
11,hobart,-42.8794,147.3294,18.92,71,75,4.12,AU,1670122945
12,sitka,57.0531,-135.33,0.15,67,7,0.75,US,1670122945
13,talnakh,69.4865,88.3972,-19.95,99,100,2.53,RU,1670122946
14,bredasdorp,-34.5322,20.0403,12.02,73,9,0.59,ZA,1670122946
15,albany,42.6001,-73.9662,4.21,62,15,1.79,US,1670122946
16,jamestown,42.097,-79.2353,1.68,62,100,6.17,US,1670122710
17,pesochnoye,58.006,39.1772,-13.24,95,92,2.93,RU,1670122947
18,castro,-24.7911,-50.0119,17.86,94,100,1.62,BR,1670122947
19,taloqan,36.7361,69.5345,3.66,80,100,0.23,AF,1670122947
20,tuktoyaktuk,69.4541,-133.0374,-13.0,85,100,12.35,CA,1670122947
21,port hardy,50.6996,-127.4199,1.65,72,4,1.27,CA,1670122948
22,ixtapa,20.7,-105.2,25.13,81,85,0.79,MX,1670122832
23,hunchun,42.8675,130.3581,-9.71,42,9,7.14,CN,1670122948
24,zharkovskiy,55.849,32.2697,-6.03,90,100,3.76,RU,1670122948
25,shenzhen,22.5455,114.0683,22.86,84,99,2.79,CN,1670122667
26,punta arenas,-53.15,-70.9167,6.06,65,40,4.12,CL,1670122671
27,mineros,-17.1167,-63.2333,25.42,55,83,1.1,BO,1670122948
28,georgetown,5.4112,100.3354,28.96,83,20,2.57,MY,1670122949
29,haines junction,60.7522,-137.5108,-13.48,93,17,0.89,CA,1670122949
30,leningradskiy,69.3833,178.4167,-10.15,86,100,7.28,RU,1670122949
31,tuatapere,-46.1333,167.6833,14.45,71,100,4.88,NZ,1670122949
32,salamanca,40.8333,-6.0,1.11,77,78,0.58,ES,1670122950
33,avanigadda,16.0215,80.9181,26.52,77,1,2.88,IN,1670122950
34,dikson,73.5069,80.5464,-1.89,97,100,10.07,RU,1670122950
35,busselton,-33.65,115.3333,21.74,51,57,6.29,AU,1670122950
36,homa bay,-0.5273,34.4571,18.25,75,9,1.57,KE,1670122951
37,mount isa,-20.7333,139.5,32.87,17,75,3.09,AU,1670122951
38,yenagoa,4.9247,6.2642,24.43,93,16,1.75,NG,1670122951
39,guerrero negro,27.9769,-114.0611,17.98,80,95,3.95,MX,1670122952
40,cayenne,4.9333,-52.3333,23.02,94,75,0.51,GF,1670122806
41,soligalich,59.0778,42.2864,-13.26,95,45,2.0,RU,1670122952
42,peniche,39.3558,-9.3811,11.17,94,15,4.16,PT,1670122952
43,kirakira,-10.4544,161.9205,28.93,74,100,3.86,SB,1670122952
44,mataura,-46.1927,168.8643,15.61,59,99,4.44,NZ,1670122953
45,bluff,-46.6,168.3333,13.21,80,100,11.41,NZ,1670122953
46,namibe,-15.1961,12.1522,21.12,86,99,1.58,AO,1670122953
47,nelson bay,-32.7167,152.15,25.03,66,84,5.81,AU,1670122802
48,tuy hoa,13.0833,109.3,25.83,88,94,4.92,VN,1670122954
49,nishihara,26.1842,127.7558,25.81,78,20,4.12,JP,1670122954
50,hilo,19.7297,-155.09,25.16,92,96,1.79,US,1670122801
51,zhigansk,66.7697,123.3711,-29.08,98,100,8.79,RU,1670122954
52,krasnoselkup,65.7,82.4667,-26.29,100,92,1.16,RU,1670122954
53,esperance,-33.8667,121.9,19.93,67,98,8.44,AU,1670122955
54,san patricio,28.017,-97.5169,20.05,82,100,3.63,US,1670122955
55,suzun,53.7841,82.3116,-22.1,99,100,0.84,RU,1670122955
56,qaqortoq,60.7167,-46.0333,-10.36,84,5,3.72,GL,1670122955
57,vaini,-21.2,-175.2,26.6,84,92,5.9,TO,1670122956
58,iquitos,-3.7481,-73.2472,26.16,69,100,0.63,PE,1670122956
59,qaanaaq,77.484,-69.3632,-17.92,86,100,1.56,GL,1670122956
60,kapaa,22.0752,-159.319,27.18,73,75,4.63,US,1670122956
61,ushuaia,-54.8,-68.3,1.79,97,54,1.91,AR,1670122957
62,portland,45.5234,-122.6762,4.38,59,43,8.49,US,1670122821
63,mindelo,16.8901,-24.9804,19.75,68,20,3.6,CV,1670122957
64,victoria,22.2855,114.1577,21.64,80,56,4.02,HK,1670122943
65,tlaxco,19.6167,-98.1167,9.63,87,64,3.94,MX,1670122957
66,mar del plata,-38.0023,-57.5575,13.24,78,0,5.04,AR,1670122958
67,nikolskoye,59.7035,30.7861,-5.05,87,100,3.8,RU,1670122958
68,ambilobe,-13.2,49.05,23.57,85,1,1.62,MG,1670122958
69,saldanha,-33.0117,17.9442,15.53,75,43,8.69,ZA,1670122959
70,naze,28.3667,129.4833,21.08,80,76,1.07,JP,1670122959
71,monastyrshchina,54.3496,31.838,-7.99,93,98,4.24,RU,1670122959
72,aras,42.5617,-2.356,0.23,100,100,0.0,ES,1670122959
73,barrow,71.2906,-156.7887,-16.99,85,0,5.14,US,1670122960
74,bida,9.0833,6.0167,24.24,38,41,0.33,NG,1670122960
75,lifford,54.8319,-7.4836,5.03,84,100,3.59,IE,1670122960
76,waverly,42.7392,-84.6208,-3.36,77,6,4.2,US,1670122683
77,butembo,0.15,29.2833,12.74,92,55,1.01,CD,1670122960
78,utiel,39.5667,-1.2,4.76,82,56,1.2,ES,1670122961
79,muravlenko,63.7898,74.523,-20.61,98,44,3.89,RU,1670122961
80,fremont,37.5483,-121.9886,11.78,95,75,2.57,US,1670122695
81,khani,41.9563,42.9566,3.76,98,100,1.8,GE,1670122961
82,hasaki,35.7333,140.8333,14.05,45,47,2.72,JP,1670122961
83,tual,-5.6667,132.75,28.67,69,46,1.56,ID,1670122962
84,yellowknife,62.456,-114.3525,0.56,73,100,12.14,CA,1670122916
85,wilmington,34.2257,-77.9447,17.14,86,100,2.2,US,1670122711
86,brzesko,49.9691,20.6061,1.65,94,99,2.23,PL,1670122765
87,palmer,42.1584,-72.3287,6.25,59,20,6.69,US,1670122962
88,mount gambier,-37.8333,140.7667,29.72,23,100,5.47,AU,1670122962
89,alofi,-19.0595,-169.9187,27.41,70,94,2.96,NU,1670122963
90,ketchikan,55.3422,-131.6461,-3.2,52,8,1.78,US,1670122963
91,baykit,61.67,96.37,-27.99,100,67,1.17,RU,1670122963
92,luderitz,-26.6481,15.1594,14.67,74,3,6.63,NA,1670122778
93,saint anthony,45.0205,-93.218,-11.72,75,0,2.57,US,1670122964
94,ilebo,-4.3167,20.5833,20.88,99,100,0.58,CD,1670122964
95,sagarejo,41.734,45.3315,1.24,99,100,1.82,GE,1670122699
96,champerico,14.3,-91.9167,26.47,76,8,1.39,GT,1670122964
97,saryozek,44.3583,77.9753,-8.08,90,100,0.82,KZ,1670122964
98,port lincoln,-34.7333,135.8667,22.36,59,87,6.19,AU,1670122965
99,duku,11.2361,4.9073,23.99,29,15,2.0,NG,1670122965
100,ponta do sol,32.6667,-17.1,16.51,76,52,4.73,PT,1670122965
101,atuona,-9.8,-139.0333,25.44,78,3,7.02,PF,1670122965
102,sur,22.5667,59.5289,22.63,62,0,2.26,OM,1670122966
103,saint-philippe,-21.3585,55.7679,24.77,84,92,3.72,RE,1670122966
104,bethel,41.3712,-73.414,8.05,62,4,0.89,US,1670122958
105,chachapoyas,-6.2317,-77.869,10.83,88,14,1.11,PE,1670122966
106,moerai,-22.4333,-151.3333,25.15,86,89,5.18,PF,1670122967
107,tiksi,71.6872,128.8694,-22.88,95,100,8.33,RU,1670122967
108,sussex,41.1834,-74.6663,6.47,66,100,2.57,US,1670122967
109,constitucion,-35.3333,-72.4167,13.41,72,52,5.42,CL,1670122856
110,poum,-20.2333,164.0167,26.62,82,100,5.35,NC,1670122967
111,provideniya,64.3833,-173.3,0.9,98,100,4.27,RU,1670122968
112,sao jose da coroa grande,-8.8978,-35.1478,24.8,85,3,4.77,BR,1670122968
113,lompoc,34.6391,-120.4579,16.08,94,100,4.12,US,1670122804
114,upernavik,72.7868,-56.1549,-6.98,67,100,10.41,GL,1670122968
115,laguna,38.421,-121.4238,7.25,95,100,3.09,US,1670122968
116,klaksvik,62.2266,-6.589,5.51,93,100,2.44,FO,1670122969
117,erzurum,40.0,41.5,-6.18,79,8,1.81,TR,1670122969
118,new norfolk,-42.7826,147.0587,18.73,31,100,1.7,AU,1670122969
119,greenville,35.6127,-77.3663,16.01,97,75,2.06,US,1670122702
120,hamilton,39.1834,-84.5333,0.52,77,0,0.89,US,1670122969
121,tyukalinsk,55.8732,72.1967,-20.13,93,89,2.66,RU,1670122970
122,dusti,37.3481,68.664,6.15,65,100,0.96,TJ,1670122970
123,santa lucia,27.9117,-15.5407,13.62,94,100,1.03,ES,1670122750
124,petropavlovskaya,45.0819,40.4512,-2.25,70,20,9.4,RU,1670122970
125,yulara,-25.2406,130.9889,36.74,9,0,4.19,AU,1670122970
126,byron bay,-28.65,153.6167,22.75,85,95,5.6,AU,1670122971
127,agbor,6.2518,6.1934,22.76,99,59,1.33,NG,1670122971
128,sfantu gheorghe,45.8667,25.7833,5.15,87,100,2.36,RO,1670122971
129,mahebourg,-20.4081,57.7,24.58,73,15,4.13,MU,1670122967
130,minsk mazowiecki,52.1794,21.5725,1.88,93,100,5.27,PL,1670122971
131,gazanjyk,39.2446,55.5154,0.47,50,100,6.38,TM,1670122972
132,hanzhong,33.0728,107.0303,8.46,48,95,2.65,CN,1670122972
133,bafoulabe,13.8065,-10.8321,28.38,21,96,1.1,ML,1670122972
134,malartic,48.1335,-78.1328,-11.73,86,100,4.32,CA,1670122973
135,puerto ayora,-0.7393,-90.3518,19.75,97,61,3.13,EC,1670122973
136,port-cartier,50.0334,-66.8654,2.64,100,100,2.08,CA,1670122973
137,deputatskiy,69.3,139.9,-27.26,97,100,2.12,RU,1670122973
138,boguchany,58.3814,97.4531,-23.18,99,67,1.72,RU,1670122974
139,marrakesh,31.6315,-8.0083,11.04,87,75,1.03,MA,1670122974
140,mitsamiouli,-11.3847,43.2844,26.27,80,3,5.33,KM,1670122974
141,cherskiy,68.75,161.3,-14.47,96,100,2.62,RU,1670122975
142,port elizabeth,-33.918,25.5701,17.4,87,0,2.06,ZA,1670122763
143,afyonkarahisar,38.75,30.6667,4.62,85,99,1.07,TR,1670122975
144,micheweni,-4.9667,39.8333,26.03,79,49,3.15,TZ,1670122975
145,hanna,51.6334,-111.9018,-11.19,65,11,6.26,CA,1670122929
146,abu samrah,35.3029,37.1841,12.11,71,100,1.08,SY,1670122975
147,carlos chagas,-17.7031,-40.7664,20.56,98,98,1.43,BR,1670122976
148,churapcha,62.0025,132.4325,-31.28,95,100,0.29,RU,1670122976
149,gazojak,41.1875,61.4036,-5.0,49,100,4.81,TM,1670122976
150,manta,-0.95,-80.7333,22.26,81,46,5.45,EC,1670122917
151,tupik,54.4253,119.9327,-22.88,84,77,1.06,RU,1670122976
152,gondanglegi,-7.7479,112.0132,29.69,66,100,1.9,ID,1670122977
153,karaikkudi,10.0667,78.7833,25.36,82,86,6.17,IN,1670122977
154,danielskuil,-28.1887,23.5395,17.35,11,19,2.61,ZA,1670122977
155,san quintin,30.4833,-115.95,17.52,70,100,1.61,MX,1670122977
156,changli,39.7042,119.1506,-1.96,18,5,3.16,CN,1670122978
157,khatanga,71.9667,102.5,-6.78,90,100,12.25,RU,1670122978
158,butaritari,3.0707,172.7902,27.24,78,31,5.34,KI,1670122978
159,wurzen,51.3667,12.7333,2.08,97,100,3.27,DE,1670122978
160,ouesso,1.6136,16.0517,20.61,97,100,0.57,CG,1670122942
161,sao gabriel da cachoeira,-0.1303,-67.0892,22.35,99,98,0.48,BR,1670122979
162,lebu,-37.6167,-73.65,12.79,90,5,4.63,CL,1670122979
163,salalah,17.0151,54.0924,22.27,54,0,1.54,OM,1670122979
164,bijie,27.3125,105.2942,1.81,90,100,2.21,CN,1670122979
165,nakhon thai,17.1006,100.8374,27.79,69,96,1.17,TH,1670122980
166,carnarvon,-24.8667,113.6333,24.44,63,9,5.67,AU,1670122980
167,margherita,27.2833,95.6833,22.2,57,0,1.25,IN,1670122980
168,temirtau,50.0544,72.9483,-18.05,97,100,3.88,KZ,1670122980
169,kodiak,57.79,-152.4072,0.41,75,75,3.04,US,1670122981
170,richards bay,-28.783,32.0377,20.09,80,100,1.81,ZA,1670122981
171,hermosillo,29.0667,-110.9667,25.11,48,100,1.34,MX,1670122981
172,faya,18.3851,42.4509,11.8,86,0,0.52,SA,1670122982
173,touros,-5.1989,-35.4608,25.75,75,5,6.52,BR,1670122982
174,atbasar,51.8,68.3333,-22.7,90,32,2.79,KZ,1670122982
175,douentza,14.9951,-2.9517,26.34,24,80,1.57,ML,1670122982
176,kungsbacka,57.4872,12.0761,0.41,75,100,4.92,SE,1670122983
177,tukrah,32.5341,20.5791,16.14,62,12,6.81,LY,1670122983
178,ribeira grande,38.5167,-28.7,15.43,75,95,5.36,PT,1670122983
179,udachnyy,66.4167,112.4,-11.95,92,100,12.45,RU,1670122983
180,stanovoye,52.7638,38.3582,-8.4,67,64,4.42,RU,1670122984
181,cabedelo,-6.9811,-34.8339,25.76,77,22,6.18,BR,1670122984
182,mandurah,-32.55,115.7,25.48,51,3,4.72,AU,1670122984
183,olafsvik,64.8945,-23.7142,5.1,84,98,4.55,IS,1670122985
184,broome,42.2506,-75.833,3.08,63,100,7.72,US,1670122985
185,zuya,45.0531,34.3154,1.31,89,100,5.52,UA,1670122985
186,gulmarg,34.049,74.3921,-0.12,39,10,1.08,IN,1670122985
187,faanui,-16.4833,-151.75,27.08,77,20,8.26,PF,1670122986
188,zheleznodorozhnyy,55.7503,38.0042,-8.77,89,93,3.0,RU,1670122986
189,coquimbo,-29.9533,-71.3436,16.37,80,9,1.28,CL,1670122986
190,taoudenni,22.6783,-3.9836,19.96,20,0,1.4,ML,1670122987
191,sao joao da barra,-21.6403,-41.0511,22.64,90,100,7.18,BR,1670122909
192,canakkale,40.0833,26.8333,7.73,91,100,4.88,TR,1670122922
193,lazaro cardenas,17.9583,-102.2,25.1,80,0,1.38,MX,1670122987
194,kaitangata,-46.2817,169.8464,16.63,56,100,5.21,NZ,1670122987
195,port alfred,-33.5906,26.891,16.77,92,100,0.89,ZA,1670122987
196,port hueneme,34.1478,-119.1951,16.26,91,40,1.54,US,1670122988
197,labuhan,-6.8844,112.2051,29.22,69,100,1.57,ID,1670122988
198,berbera,10.4396,45.0143,23.8,74,19,2.89,SO,1670122988
199,kaspiyskiy,45.3929,47.3707,-3.97,69,82,7.97,RU,1670122988
200,sai buri,6.7013,101.6168,25.54,83,100,3.98,TH,1670122989
201,henties bay,-22.116,14.2845,13.97,91,1,1.91,NA,1670122989
202,tongchuan,35.0806,109.0897,2.47,27,100,0.97,CN,1670122989
203,iqaluit,63.7506,-68.5145,-9.61,72,100,3.58,CA,1670122990
204,birin,26.8865,88.0718,14.4,56,0,1.27,NP,1670122990
205,kahului,20.8947,-156.47,26.65,82,54,4.02,US,1670122990
206,kilindoni,-7.9139,39.6668,26.61,76,6,5.33,TZ,1670122990
207,wanning,18.8003,110.3967,23.83,86,90,5.72,CN,1670122991
208,kruisfontein,-34.0033,24.7314,16.05,83,100,1.37,ZA,1670122991
209,ortigueira,-24.2083,-50.9494,18.38,99,100,0.87,BR,1670122991
210,wewak,-3.5534,143.6268,27.7,75,100,1.34,PG,1670122991
211,neuquen,-38.9516,-68.0591,20.86,22,100,9.64,AR,1670122845
212,kysyl-syr,63.8986,122.7617,-25.6,98,100,2.29,RU,1670122992
213,imbituba,-28.24,-48.6703,22.62,98,100,3.28,BR,1670122992
214,statesboro,32.4488,-81.7832,19.15,82,100,0.0,US,1670122926
215,thinadhoo,0.5333,72.9333,27.58,70,100,4.01,MV,1670122992
216,san isidro,-12.1167,-77.05,19.45,80,22,3.08,PE,1670122993
217,saskylakh,71.9167,114.0833,-10.76,92,100,10.84,RU,1670122993
218,naryan-mar,67.6713,53.087,-13.54,96,29,3.11,RU,1670122993
219,harper,4.375,-7.7169,24.85,86,100,3.15,LR,1670122994
220,coahuayana,18.7333,-103.6833,24.16,88,68,0.94,MX,1670122994
221,longyearbyen,78.2186,15.6401,-2.09,80,75,4.12,SJ,1670122994
222,xichang,27.8964,102.2634,12.47,55,0,1.27,CN,1670122994
223,shushtar,32.0455,48.8567,16.06,61,100,1.33,IR,1670122995
224,ostrovnoy,68.0531,39.5131,-7.5,88,30,4.35,RU,1670122995
225,pevek,69.7008,170.3133,-11.65,77,100,1.58,RU,1670122995
226,tasiilaq,65.6145,-37.6368,1.09,96,100,4.48,GL,1670122995
227,gimli,50.6336,-96.9907,-14.78,84,97,5.34,CA,1670122996
228,tura,25.5198,90.2201,21.28,64,0,0.63,IN,1670122996
229,moscow,55.7522,37.6156,-8.76,92,95,2.61,RU,1670122724
230,nome,64.5011,-165.4064,0.09,99,100,6.83,US,1670122996
231,thompson,55.7435,-97.8558,-30.94,100,74,1.51,CA,1670122911
232,hithadhoo,-0.6,73.0833,28.2,70,100,4.92,MV,1670122997
233,karaidel,55.8337,56.9069,-16.66,95,100,1.64,RU,1670122997
234,comodoro rivadavia,-45.8667,-67.5,15.28,38,3,11.55,AR,1670122838
235,tessalit,20.1986,1.0114,20.71,19,5,1.78,ML,1670122997
236,shingu,33.7333,135.9833,12.82,73,100,1.01,JP,1670122998
237,okhotsk,59.3833,143.3,-26.78,90,100,5.2,RU,1670122998
238,miastko,54.0028,16.9826,-0.64,96,100,3.23,PL,1670122998
239,akdepe,42.0551,59.3788,-6.99,76,87,3.22,TM,1670122998
240,arraial do cabo,-22.9661,-42.0278,22.67,91,98,11.96,BR,1670122999
241,kutno,52.2306,19.3641,2.28,92,100,4.69,PL,1670122999
242,east london,-33.0153,27.9116,17.97,83,100,2.9,ZA,1670122883
243,moron,-34.6534,-58.6198,22.76,72,0,2.69,AR,1670122999
244,metro,-5.1131,105.3067,29.51,62,100,2.15,ID,1670122999
245,sainte-rose,16.3324,-61.6979,22.02,88,62,0.51,GP,1670123000
246,sorland,67.667,12.6934,2.92,75,100,7.98,NO,1670123000
247,wynyard,-41.0,145.7167,21.66,66,99,2.71,AU,1670123000
248,sao filipe,14.8961,-24.4956,21.95,63,99,2.02,CV,1670123000
249,chuy,-33.6971,-53.4616,18.05,96,87,0.99,UY,1670123001
250,herat,34.5,62.0,2.29,39,100,3.88,AF,1670123001
251,paamiut,61.994,-49.6678,-7.66,68,12,5.99,GL,1670123001
252,coihaique,-45.5752,-72.0662,4.17,97,36,3.21,CL,1670123001
253,olinda,-8.0089,-34.8553,26.85,69,40,3.09,BR,1670123002
254,puerto carreno,6.189,-67.4859,24.27,82,52,2.43,CO,1670123002
255,ilulissat,69.2167,-51.1,-3.99,74,40,4.12,GL,1670123002
256,bengkulu,-3.8004,102.2655,27.64,70,33,1.46,ID,1670123003
257,lavrentiya,65.5833,-171.0,-0.04,99,100,4.28,RU,1670123003
258,porbandar,21.6422,69.6093,22.64,38,2,4.18,IN,1670123003
259,vuktyl,63.8567,57.3094,-16.8,98,100,0.92,RU,1670123003
260,portales,34.1862,-103.3344,4.86,78,100,1.24,US,1670123004
261,petatlan,17.5167,-101.2667,26.89,82,0,1.68,MX,1670123004
262,wahiawa,21.5028,-158.0236,24.87,75,8,3.41,US,1670123004
263,ossora,59.2353,163.0719,-13.86,81,2,3.56,RU,1670123004
264,kamaishi,39.2667,141.8833,8.77,61,88,2.73,JP,1670122917
265,aberystwyth,52.4155,-4.0829,4.28,83,87,3.92,GB,1670123005
266,chingola,-12.529,27.8838,16.87,86,100,1.08,ZM,1670123005
267,corn island,12.1694,-83.0418,27.53,74,0,8.01,NI,1670123005
268,dakar,14.6937,-17.4441,20.49,64,100,4.01,SN,1670122800
269,varzea da palma,-17.5981,-44.7308,19.11,90,93,0.51,BR,1670123005
270,asau,46.4333,26.4,-1.49,97,100,1.3,RO,1670123006
271,yar-sale,66.8333,70.8333,-2.83,89,100,5.88,RU,1670123006
272,boddam,57.4667,-1.7833,6.21,74,80,7.88,GB,1670123006
273,mehamn,71.0357,27.8492,-4.03,74,39,8.23,NO,1670123006
274,okitipupa,6.5047,4.7839,23.48,98,55,0.84,NG,1670123007
275,beloha,-25.1667,45.05,23.09,68,33,2.2,MG,1670123007
276,slave lake,55.2834,-114.769,-4.96,58,75,5.91,CA,1670123007
277,kampot,10.6167,104.1833,28.03,78,97,4.11,KH,1670123007
278,gornopravdinsk,60.05,69.9,-10.33,96,100,2.67,RU,1670123008
279,aswan,24.0934,32.907,16.64,41,70,2.7,EG,1670123008
280,tautira,-17.7333,-149.15,26.3,81,7,7.69,PF,1670122878
281,husavik,66.0449,-17.3389,-0.75,78,4,4.82,IS,1670123008
282,nanortalik,60.1432,-45.2371,-4.73,79,3,5.58,GL,1670123009
283,aklavik,68.2191,-135.0107,-11.56,79,74,10.1,CA,1670123009
284,linxia,35.6003,103.2064,-2.6,35,91,0.12,CN,1670123009
285,winslow,35.0242,-110.6974,10.1,87,40,3.09,US,1670123009
286,rawson,-43.3002,-65.1023,20.31,31,44,6.81,AR,1670123010
287,daru,-9.0763,143.2092,30.55,56,98,3.28,PG,1670123010
288,warmbad,-28.45,18.7333,14.73,49,23,3.3,NA,1670123010
289,vila velha,-20.3297,-40.2925,22.19,98,100,3.28,BR,1670122990
290,narsaq,60.9167,-46.05,-7.88,74,2,3.9,GL,1670123010
291,rauma,61.1272,21.5113,-3.98,93,47,1.42,FI,1670122749
292,shiyan,32.6475,110.7781,5.99,36,94,3.69,CN,1670123011
293,sydney,-33.8679,151.2073,28.08,56,20,8.23,AU,1670123007
294,zhangye,38.9342,100.4517,-4.25,50,89,2.29,CN,1670123011
295,airai,-8.9266,125.4092,25.69,38,89,0.45,TL,1670123011
296,charlestown,-32.95,151.6667,26.12,57,64,2.68,AU,1670122717
297,mianyang,31.4593,104.7542,9.47,61,52,0.43,CN,1670123011
298,bac lieu,9.285,105.7244,27.82,81,79,9.08,VN,1670122719
299,maracai,-22.6106,-50.6672,22.65,87,100,1.22,BR,1670123012
300,port victoria,0.0939,33.9756,19.67,71,12,5.23,KE,1670123012
301,bassano,50.7834,-112.4685,-9.83,74,3,4.61,CA,1670122832
302,syedove,47.0768,38.156,-2.57,60,44,13.87,UA,1670123012
303,shuyskoye,59.3736,41.0305,-13.2,95,81,2.29,RU,1670123013
304,arman,59.7,150.1667,-16.68,82,100,3.91,RU,1670123013
305,vila franca do campo,37.7167,-25.4333,15.23,75,99,12.39,PT,1670123013
306,sisimiut,66.9395,-53.6735,-3.47,86,100,6.93,GL,1670123013
307,esmeraldas,-19.7625,-44.3139,18.16,94,100,3.61,BR,1670122927
308,bulgan,48.8125,103.5347,-19.05,76,2,1.13,MN,1670123014
309,paciran,-6.8767,112.3761,29.23,68,100,1.54,ID,1670123014
310,cafarnaum,-11.6936,-41.4683,19.55,86,100,4.55,BR,1670123014
311,vallenar,-28.5708,-70.7581,20.57,51,0,1.27,CL,1670122926
312,bam,29.106,58.357,10.49,43,1,0.39,IR,1670123014
313,strezhevoy,60.7333,77.5889,-17.52,100,90,0.53,RU,1670122857
314,saint-louis,16.3333,-15.0,20.3,28,63,3.93,SN,1670123015
315,batagay-alyta,67.8006,130.4114,-22.57,91,100,1.38,RU,1670123015
316,grand-santi,4.25,-54.3833,21.99,99,98,1.53,GF,1670123015
317,caravelas,-17.7125,-39.2481,22.07,94,100,2.43,BR,1670123015
318,beringovskiy,63.05,179.3167,1.31,99,100,6.33,RU,1670123016
319,northam,51.0333,-4.2167,5.22,72,100,6.19,GB,1670123016
320,nargana,9.4428,-78.5906,26.55,81,42,5.66,PA,1670123016
321,kijang,35.2442,129.2139,8.1,22,20,2.95,KR,1670123016
322,bella union,-30.2752,-57.6007,20.8,94,100,2.84,UY,1670123017
323,killam,52.7834,-111.8518,-11.28,82,37,4.64,CA,1670123017
324,mandalay,21.9747,96.0836,24.05,55,0,1.05,MM,1670122819
325,hambantota,6.1241,81.1185,25.19,100,40,1.03,LK,1670123017
326,la ronge,55.1001,-105.2842,-14.09,86,100,3.76,CA,1670122832
327,baia mare,47.6533,23.5795,-0.29,100,100,2.06,RO,1670123017
328,bairiki,1.3292,172.9752,27.33,71,29,7.65,KI,1670123018
329,sapernoye,60.7167,29.9505,-4.63,90,100,2.77,RU,1670123018
330,male,4.1748,73.5089,26.72,76,84,3.4,MV,1670123018
331,bambanglipuro,-7.95,110.2833,27.37,74,100,1.58,ID,1670123018
332,karratha,-20.7377,116.8463,36.16,29,1,5.25,AU,1670123019
333,oyama,36.3,139.8,13.66,30,6,1.31,JP,1670123002
334,indramayu,-6.3264,108.32,28.51,66,100,0.67,ID,1670123019
335,murdochville,48.9583,-65.5006,5.02,100,100,6.41,CA,1670123019
336,smithers,54.7804,-127.1743,-14.96,96,12,0.46,CA,1670123019
337,maningrida,-12.0667,134.2667,33.63,51,74,3.4,AU,1670123020
338,llanes,43.4198,-4.7549,9.38,77,99,3.71,ES,1670123020
339,shakawe,-18.3667,21.85,21.95,27,18,1.85,BW,1670123020
340,frutal,-20.0247,-48.9406,21.77,85,100,2.41,BR,1670123020
341,kita,13.0349,-9.4895,23.66,33,58,1.51,ML,1670123021
342,karaton,-6.3424,106.1045,29.86,58,100,1.59,ID,1670123021
343,bowling green,36.9903,-86.4436,1.41,82,59,2.42,US,1670122828
344,norman wells,65.282,-126.8329,-5.41,74,100,10.65,CA,1670123021
345,marabba,12.35,32.1833,25.18,33,6,5.67,SD,1670123022
346,illapel,-31.6308,-71.1653,19.51,54,0,0.72,CL,1670123022
347,warrington,53.3925,-2.5802,4.37,92,53,3.23,GB,1670123022
348,chimbote,-9.0853,-78.5783,18.62,87,13,3.21,PE,1670123022
349,kangaatsiaq,68.3065,-53.4641,-4.73,93,100,5.33,GL,1670123023
350,araouane,18.9048,-3.5265,23.19,18,89,4.86,ML,1670123023
351,contepec,20.0167,-100.1167,10.73,84,17,3.69,MX,1670123023
352,bokoro,12.3807,17.0568,24.26,24,100,4.71,TD,1670123023
353,shubarshi,48.5872,57.1869,-13.68,71,5,5.34,KZ,1670123023
354,jibuti,11.5,42.5,19.57,82,24,4.75,DJ,1670123024
355,skibbereen,51.55,-9.2667,6.73,84,100,4.99,IE,1670123024
356,montepuez,-13.1256,38.9997,19.92,95,13,1.7,MZ,1670123024
357,vanimo,-2.6741,141.3028,25.25,91,100,3.52,PG,1670123024
358,madras,13.0878,80.2785,26.99,89,75,2.06,IN,1670122942
359,severo-kurilsk,50.6789,156.125,1.57,87,73,7.78,RU,1670123025
360,bambous virieux,-20.3428,57.7575,24.56,72,21,4.29,MU,1670123025
361,inhambane,-23.865,35.3833,23.89,93,3,0.21,MZ,1670123025
362,mackay,-21.15,149.2,29.82,61,2,6.18,AU,1670122828
363,huadian,42.9633,126.7478,-13.1,63,25,6.36,CN,1670123026
364,tadine,-21.55,167.8833,26.24,80,100,1.48,NC,1670123026
365,partizanskoye,55.5006,94.39,-17.06,90,98,1.46,RU,1670123026
366,puerto baquerizo moreno,-0.9,-89.6,21.08,83,96,4.57,EC,1670122813
367,visnes,59.3556,5.2242,1.79,74,5,3.09,NO,1670123026
368,aykhal,66.0,111.5,-12.34,90,100,11.36,RU,1670123027
369,jos,9.9167,8.9,18.3,34,85,1.87,NG,1670122841
370,kukes,42.0769,20.4219,8.02,89,95,1.19,AL,1670123027
371,abu kamal,34.4506,40.9171,13.63,75,99,1.94,SY,1670123027
372,te anau,-45.4167,167.7167,12.35,80,100,3.1,NZ,1670123027
373,uribia,11.7139,-72.266,24.69,82,53,3.46,CO,1670122837
374,green valley,31.8543,-110.9937,15.78,92,100,1.22,US,1670123028
375,winchester,51.0651,-1.3187,5.36,83,100,4.12,GB,1670122941
376,varna,43.2167,27.9167,3.08,93,100,3.09,BG,1670122833
377,lardos,36.0942,28.0157,16.08,78,1,2.51,GR,1670123028
378,namatanai,-3.6667,152.4333,29.71,66,82,2.32,PG,1670123028
379,chara,56.9064,118.2631,-21.87,80,40,1.75,RU,1670123028
380,port blair,11.6667,92.75,28.35,75,98,5.9,IN,1670123029
381,pacifica,37.6138,-122.4869,10.52,95,100,3.09,US,1670122862
382,carballo,43.213,-8.691,6.61,84,22,1.22,ES,1670123029
383,ngorongoro,-3.2397,35.4875,10.34,92,26,1.7,TZ,1670123029
384,malanje,-9.5402,16.341,17.71,98,100,2.24,AO,1670123029
385,kuruman,-27.4524,23.4325,19.12,12,2,2.14,ZA,1670123030
386,pemangkat,1.1667,108.9667,28.47,72,82,1.38,ID,1670123030
387,lubango,-14.9172,13.4925,16.52,78,73,0.54,AO,1670123030
388,vanavara,60.34,102.2797,-22.72,97,81,3.19,RU,1670123031
389,tashtyp,52.7939,89.8983,-23.06,95,61,0.04,RU,1670123031
390,roma,43.2128,-75.4557,2.99,64,99,4.47,US,1670122732
391,semnan,35.5729,53.3971,6.09,63,83,2.63,IR,1670123031
392,gukovo,48.0531,39.9311,-9.16,52,12,7.53,RU,1670123031
393,pavlovskiy,57.8424,54.8436,-12.33,92,98,3.04,RU,1670123032
394,port augusta,-32.5,137.7667,37.53,10,37,3.74,AU,1670122960
395,kantunilkin,21.0917,-87.45,22.68,92,32,1.6,MX,1670123032
396,luanda,-8.8368,13.2343,25.0,88,75,3.09,AO,1670123032
397,barcelona,41.3888,2.159,10.14,80,75,6.69,ES,1670122971
398,gararu,-9.9675,-37.0833,23.09,90,30,1.84,BR,1670123032
399,vila,42.0304,-8.1588,-1.51,90,1,1.73,PT,1670123033
400,brae,60.3964,-1.353,6.4,71,100,5.09,GB,1670123033
401,lata,40.1629,-8.3327,8.93,87,94,1.15,PT,1670123033
402,kemi,65.8596,24.8228,-4.13,86,100,2.06,FI,1670123033
403,santa isabel,-23.3156,-46.2214,19.86,99,100,0.85,BR,1670123034
404,kautokeino,69.0125,23.0412,-12.68,99,91,2.23,NO,1670123034
405,kiruna,67.8557,20.2251,-6.49,93,100,2.06,SE,1670123034
406,kristiinankaupunki,62.2743,21.376,-7.24,94,71,1.48,FI,1670123035
407,grindavik,63.8424,-22.4338,2.26,100,75,2.57,IS,1670123035
408,staraya mayna,54.6,48.95,-18.01,94,27,1.84,RU,1670123035
409,sompeta,18.9333,84.6,24.6,72,0,2.15,IN,1670123035
410,marienburg,54.0359,19.0266,2.14,96,100,2.4,PL,1670123036
411,dalfsen,52.5,6.25,0.66,91,95,5.15,NL,1670123036
412,catuday,16.2923,119.8062,29.12,64,25,3.69,PH,1670123036
413,martapura,-3.4167,114.85,27.05,83,75,3.09,ID,1670123036
414,bazarnyy syzgan,53.7512,46.7535,-13.56,96,32,1.37,RU,1670123037
415,raga,8.4596,25.678,21.4,27,31,2.03,SS,1670123037
416,acapulco,16.8634,-99.8901,25.9,72,0,2.8,MX,1670122915
417,aasiaat,68.7098,-52.8699,-8.33,96,65,3.88,GL,1670123000
418,boromo,11.75,-2.9333,24.99,67,46,2.0,BF,1670123037
419,hay river,60.8156,-115.7999,-1.58,83,100,10.12,CA,1670123037
420,fairbanks,64.8378,-147.7164,-2.02,92,100,0.0,US,1670122842
421,hemnesberget,66.2333,13.6333,-8.01,86,11,2.39,NO,1670123038
422,samarkand,39.6542,66.9597,-0.32,86,75,2.06,UZ,1670122818
423,salinas,36.6777,-121.6555,13.05,89,100,0.0,US,1670122919
424,nuuk,64.1835,-51.7216,-5.62,78,68,4.86,GL,1670123038
425,pacific grove,36.6177,-121.9166,12.82,93,100,2.68,US,1670123038
426,ruwi,23.5996,58.5507,23.83,58,28,1.6,OM,1670123038
427,raudeberg,61.9875,5.1352,-0.02,63,26,1.27,NO,1670123039
428,sherbakul,54.6316,72.3963,-21.51,87,50,2.37,RU,1670123039
429,saint-georges,12.0564,-61.7485,24.43,84,98,3.44,GD,1670123039
430,ambulu,-8.345,113.6058,28.82,70,96,2.03,ID,1670123039
431,nantucket,41.2835,-70.0995,14.06,91,75,8.23,US,1670122839
432,bangassou,4.7413,22.8184,20.1,52,64,1.16,CF,1670123040
433,isangel,-19.55,169.2667,28.74,75,100,4.03,VU,1670123040
434,baruun-urt,46.6806,113.2792,-17.48,69,4,4.77,MN,1670123040
435,tanout,14.9709,8.8879,21.25,20,4,5.42,NE,1670123041
436,margate,51.3813,1.3862,4.94,80,100,2.24,GB,1670122913
437,ekpoma,6.7421,6.139,20.81,99,75,1.55,NG,1670123041
438,monki,53.405,22.7979,-1.29,95,100,4.17,PL,1670123041
439,belgrade,44.804,20.4651,4.68,80,0,7.2,RS,1670123031
440,hagere selam,6.4833,38.5167,7.74,95,72,1.82,ET,1670123041
441,sendai,38.2689,140.8719,10.66,66,75,6.17,JP,1670122795
442,canico,32.6333,-16.85,16.51,78,40,3.6,PT,1670123042
443,lyambir,54.2817,45.1249,-12.94,93,76,1.03,RU,1670123042
444,rudnichnyy,59.617,52.4703,-14.67,95,88,1.87,RU,1670123042
445,shinpokh,34.3292,71.1782,8.67,35,81,1.83,PK,1670123042
446,bud,39.447,-86.1758,-1.57,75,48,2.82,US,1670123043
447,hofn,64.2539,-15.2082,2.56,56,0,2.46,IS,1670122999
448,sinnamary,5.3833,-52.95,24.57,88,80,3.19,GF,1670123043
449,katsuura,35.1333,140.3,14.01,55,69,9.39,JP,1670123043
450,itarema,-2.9248,-39.9167,26.31,78,18,7.22,BR,1670123044
451,nur,52.6683,22.3221,-1.82,95,100,5.11,PL,1670123044
452,dickinson,29.4608,-95.0513,21.69,84,100,3.09,US,1670122976
453,anloga,5.7947,0.8973,26.55,84,13,5.14,GH,1670123044
454,kavaratti,10.5669,72.642,27.54,75,100,3.73,IN,1670123044
455,verkhnyaya inta,65.9811,60.3094,-12.7,96,100,4.71,RU,1670123045
456,yushan,31.3776,120.9543,11.1,76,100,6.26,CN,1670122814
457,codrington,-38.2667,141.9667,28.94,40,100,2.87,AU,1670123045
458,camacha,33.0833,-16.3333,14.68,72,40,3.09,PT,1670123045
459,lagoa,39.05,-27.9833,15.29,70,7,13.53,PT,1670123045
460,riyadh,24.6877,46.7219,16.08,36,5,3.18,SA,1670122794
461,rio gallegos,-51.6226,-69.2181,6.38,59,95,7.35,AR,1670123046
462,san vicente,-26.6167,-54.1333,19.09,98,72,0.38,AR,1670123046
463,dargaville,-35.9333,173.8833,19.01,58,0,3.99,NZ,1670123046
464,ojinaga,29.5667,-104.4167,17.54,44,0,8.23,MX,1670123046
465,aquin,18.2833,-73.4,25.03,75,4,4.88,HT,1670123047
466,nouadhibou,20.931,-17.0347,17.86,83,0,5.21,MR,1670123047
467,lima duarte,-21.8425,-43.7931,18.13,97,100,1.73,BR,1670123047
468,talara,-4.5772,-81.2719,19.61,87,5,5.45,PE,1670123048
469,lake havasu city,34.4839,-114.3224,17.35,66,0,2.06,US,1670123032
470,korla,41.7597,86.1469,-4.04,32,86,0.15,CN,1670123048
471,fort nelson,58.8053,-122.7002,6.55,54,100,7.7,CA,1670122828
472,darlawn,24.0167,92.9,20.78,56,0,0.28,IN,1670123048
473,kikwit,-5.041,18.8162,20.16,96,100,0.75,CD,1670123048
474,sanjwal,33.7608,72.4336,12.18,45,8,1.29,PK,1670123049
475,gweta,-20.1833,25.2333,26.25,35,14,3.81,BW,1670123049
476,grand gaube,-20.0064,57.6608,24.65,73,16,2.24,MU,1670123049
477,tahe,52.3333,124.7333,-19.57,65,47,2.32,CN,1670123050
478,rio grande,-32.035,-52.0986,20.32,96,51,2.65,BR,1670123050
479,cabo san lucas,22.8909,-109.9124,25.84,74,5,3.7,MX,1670122915
480,opuwo,-18.0607,13.84,20.35,42,32,1.19,NA,1670123050
481,shache,38.4167,77.2406,-4.38,27,70,0.41,CN,1670123051
482,derzhavinsk,51.1,66.3167,-19.69,89,24,3.88,KZ,1670123051
483,buala,-8.145,159.5921,27.84,78,99,2.31,SB,1670123051
484,storm lake,42.6411,-95.2097,-4.36,68,0,4.63,US,1670123051
485,padang,-0.9492,100.3543,24.03,91,100,2.31,ID,1670122895
486,mpika,-11.8343,31.4529,16.96,83,100,1.46,ZM,1670123052
487,kyren,51.6828,102.1408,-16.59,78,82,0.09,RU,1670123052
488,camana,-16.6228,-72.7111,20.01,81,46,3.88,PE,1670123052
489,aitape,-3.1374,142.3475,26.1,87,100,3.41,PG,1670123053
490,port keats,-14.25,129.55,33.66,44,86,4.74,AU,1670123053
491,half moon bay,37.4636,-122.4286,11.04,96,100,3.09,US,1670123044
492,tisul,55.7611,88.3122,-20.72,96,47,1.36,RU,1670123053
493,vostok,46.4856,135.8833,-20.23,90,100,5.76,RU,1670123053
494,college,64.8569,-147.8028,-2.03,93,100,0.0,US,1670123054
495,carutapera,-1.195,-46.02,24.03,92,99,1.81,BR,1670123054
496,katangli,51.7102,143.2326,-17.64,72,10,5.57,RU,1670123054
497,torbay,47.6666,-52.7314,0.83,80,42,1.34,CA,1670122826
498,pisco,-13.7,-76.2167,18.34,80,1,1.85,PE,1670123055
499,panjab,34.388,67.0233,-3.6,73,64,0.96,AF,1670123055
500,safaga,26.7292,33.9365,19.58,58,42,6.28,EG,1670123055
501,eirunepe,-6.6603,-69.8736,22.43,98,100,0.58,BR,1670123056
502,palana,59.1167,159.9667,-12.31,82,87,6.04,RU,1670123056
503,praia,14.9215,-23.5087,20.3,68,20,3.09,CV,1670123056
504,ambon,-3.6954,128.1814,31.08,70,20,2.57,ID,1670123056
505,golfito,8.639,-83.166,22.7,94,72,0.99,CR,1670123057
506,preobrazheniye,42.9019,133.9064,-9.0,44,9,6.04,RU,1670123057
507,gamba,-2.65,10.0,23.37,92,100,1.9,GA,1670123057
508,ahipara,-35.1667,173.1667,19.18,60,3,4.01,NZ,1670123057
509,berlevag,70.8578,29.0864,-4.0,80,33,4.63,NO,1670123058
510,lluta,-16.0147,-72.0142,8.41,51,1,1.08,PE,1670122803
511,ust-maya,60.4167,134.5333,-28.24,96,100,0.53,RU,1670123058
512,weligama,5.9667,80.4167,25.77,81,99,1.74,LK,1670123058
513,meadow lake,34.8014,-106.5436,8.71,92,100,2.12,US,1670122832
514,nioro,13.35,-15.75,20.44,70,85,2.24,GM,1670123059
515,kargopol,61.5071,38.9456,-8.91,87,100,3.51,RU,1670123059
516,broadford,-37.2,145.0667,30.97,29,36,3.66,AU,1670123059
517,douglas,41.3,-96.167,-2.56,57,0,7.72,US,1670122893
518,caraquet,47.7941,-64.9386,8.81,94,100,9.33,CA,1670123059
519,lasa,46.6166,10.7002,2.23,99,98,1.99,IT,1670123060
520,izumo,35.3667,132.7667,12.21,59,98,4.2,JP,1670122977
521,bathsheba,13.2167,-59.5167,26.34,89,20,4.12,BB,1670123060
522,phetchaburi,12.9667,99.5833,27.38,72,77,3.2,TH,1670123060
523,pak phanang,8.3511,100.202,25.41,88,100,4.88,TH,1670123061
524,doha,25.2867,51.5333,22.99,80,9,3.09,QA,1670123061
525,nara,34.6851,135.8049,12.2,48,84,2.33,JP,1670122807
526,saint-augustin,51.226,-58.6502,1.53,82,100,7.99,CA,1670123061
527,tombouctou,20.0,-3.0,22.78,17,88,3.85,ML,1670123062
528,pionerskiy,54.9508,20.2275,-1.09,88,100,4.95,RU,1670123062
529,turukhansk,65.8167,87.9833,-25.05,99,96,1.9,RU,1670123062
530,rundu,-17.9333,19.7667,20.16,40,17,2.19,NA,1670123062
531,san cristobal,7.7669,-72.225,19.1,97,95,1.53,VE,1670123063
532,karapyshi,49.6424,30.79,-3.82,69,73,5.08,UA,1670123063
533,san lawrenz,36.0553,14.204,16.03,76,5,4.18,MT,1670123063
534,sayhat,26.4852,50.0405,18.11,63,98,3.59,SA,1670123063
535,thuin,50.3395,4.2848,1.09,93,75,4.63,BE,1670123064
536,saint-nazaire,47.2833,-2.2,4.15,88,100,3.09,FR,1670123064
537,severnyy,50.677,36.5532,-9.98,73,0,6.0,RU,1670123064
538,huarmey,-10.0681,-78.1522,19.29,86,1,3.36,PE,1670123064
539,asyut,27.181,31.1837,14.98,75,100,4.22,EG,1670123065
540,findlay,41.0442,-83.6499,-1.73,78,0,4.63,US,1670122937
541,maniitsoq,65.4167,-52.9,-2.37,78,100,10.49,GL,1670123065
542,itoman,26.1247,127.6694,27.43,80,20,4.12,JP,1670123065
543,saint george,37.1041,-113.5841,11.33,49,0,1.79,US,1670122861
544,galveston,29.3669,-94.9669,21.64,89,100,2.57,US,1670123066
545,port-gentil,-0.7193,8.7815,25.1,87,100,3.11,GA,1670122888
546,kropotkin,45.4375,40.5756,-4.17,70,8,9.88,RU,1670123066
547,alice springs,-23.7,133.8833,33.75,12,0,4.63,AU,1670123066
548,bauchi,10.5,10.0,20.29,34,100,1.72,NG,1670123066
549,lockhart,28.6194,-81.4426,20.98,88,0,0.0,US,1670123067
550,cidreira,-30.1811,-50.2056,21.74,97,100,1.77,BR,1670123067
551,livingston,55.9029,-3.5226,5.49,96,100,1.03,GB,1670123067
552,nizhnevartovsk,60.9344,76.5531,-13.99,85,100,0.0,RU,1670123057
553,duluth,46.7833,-92.1066,-10.95,70,75,5.14,US,1670122833
554,fortuna,40.5982,-124.1573,10.51,79,100,8.23,US,1670123068
555,gravelbourg,49.8834,-106.5512,-11.5,77,5,5.97,CA,1670123068
556,verkhnyaya toyma,62.2349,44.9985,-12.79,96,69,1.45,RU,1670123068
557,louis trichardt,-23.0439,29.9032,19.0,90,94,4.4,ZA,1670123065
558,punto fijo,11.6956,-70.1996,25.83,78,44,5.04,VE,1670123068
559,nouakchott,18.0858,-15.9785,15.96,66,0,3.67,MR,1670123069
560,aberdeen,57.1437,-2.0981,6.27,70,75,5.66,GB,1670122970
561,alihe,50.5667,123.7167,-19.85,69,13,1.57,CN,1670123069
562,orlik,52.5178,99.825,-24.49,87,75,1.09,RU,1670123069
563,dingle,10.9995,122.6711,29.43,72,65,4.63,PH,1670123070
564,kaeo,-35.1,173.7833,21.05,56,8,3.65,NZ,1670123070
565,nizwa,22.9333,57.5333,17.65,67,0,0.79,OM,1670123070
