City_ID,City,Lat,Lng,Max Temp,Humidity,Cloudiness,Wind Speed,Country,Date
0,busselton,-33.65,115.3333,-432.526,79,3,2.37,AU,1669937365
1,jamestown,42.097,-79.2353,-460.084,89,100,3.09,US,1669937388
2,ponta do sol,32.6667,-17.1,-424.65999999999997,73,28,3.3,PT,1669937397
3,presidencia roque saenz pena,-26.7852,-60.4388,-417.69399999999996,60,79,3.05,AR,1669937487
4,mataura,-46.1927,168.8643,-441.184,82,61,3.77,NZ,1669937381
5,bathsheba,13.2167,-59.5167,-410.45799999999997,74,40,8.23,BB,1669937361
6,faanui,-16.4833,-151.75,-411.03399999999993,78,83,8.72,PF,1669937368
7,matara,5.9485,80.5353,-416.9919999999999,91,68,1.72,LK,1669937488
8,butaritari,3.0707,172.7902,-410.782,78,26,7.47,KI,1669937360
9,pangnirtung,66.1451,-65.7125,-477.66999999999996,31,100,8.75,CA,1669937200
10,alice springs,-23.7,133.8833,-409.71999999999997,17,0,5.14,AU,1669937410
11,saint-augustin,51.226,-58.6502,-457.816,96,100,7.46,CA,1669937488
12,lorengau,-2.0226,147.2712,-407.776,70,100,1.68,PG,1669937392
13,launceston,-41.45,147.1667,-429.05199999999996,73,100,3.6,AU,1669937406
14,zeya,53.75,127.2667,-520.528,97,65,0.93,RU,1669937488
15,salamiyah,35.0113,37.0532,-439.1319999999999,81,1,0.8,SY,1669937489
16,padang,-0.9492,100.3543,-416.5419999999999,92,100,1.66,ID,1669937489
17,puerto asis,0.5133,-76.5007,-415.5879999999999,87,65,1.5,CO,1669937489
18,dmitriyevka,54.75,55.3333,-496.12,100,100,1.12,RU,1669937489
19,albany,42.6001,-73.9662,-455.09799999999996,58,91,4.53,US,1669937215
20,tuktoyaktuk,69.4541,-133.0374,-492.06999999999994,78,100,5.66,CA,1669937404
21,punta arenas,-53.15,-70.9167,-441.03999999999996,69,100,8.71,CL,1669937360
22,norilsk,69.3535,88.2027,-488.866,97,100,2.26,RU,1669937490
23,cape town,-33.9258,18.4232,-426.40599999999995,83,75,3.09,ZA,1669937373
24,chokurdakh,70.6333,147.9167,-492.808,97,100,3.91,RU,1669937389
25,chuy,-33.6971,-53.4616,-421.6539999999999,94,44,2.98,UY,1669937346
26,homer,59.6425,-151.5483,-463.3959999999999,63,0,5.81,US,1669937406
27,port hardy,50.6996,-127.4199,-463.09,69,75,3.09,CA,1669937251
28,bluff,-46.6,168.3333,-440.85999999999996,60,59,7.66,NZ,1669937362
29,volodarka,49.5248,29.9122,-463.64799999999997,78,100,3.08,UA,1669937490
30,saint-philippe,-21.3585,55.7679,-418.6839999999999,80,18,1.71,RE,1669937365
31,thompson,55.7435,-97.8558,-511.70799999999997,76,40,2.06,CA,1669937384
32,staroaleyskoye,51.0061,82.0,-509.31399999999996,98,96,0.71,RU,1669937490
33,rikitea,-23.1203,-134.9692,-416.974,76,100,4.43,PF,1669937360
34,acapulco,16.8634,-99.8901,-407.6499999999999,70,75,3.09,MX,1669937110
35,tuatapere,-46.1333,167.6833,-438.6819999999999,57,86,5.7,NZ,1669937390
36,conde,-7.2597,-34.9075,-411.60999999999996,74,20,3.6,BR,1669937491
37,luderitz,-26.6481,15.1594,-428.8539999999999,85,0,8.68,NA,1669937491
38,wenling,28.3669,121.36,-449.662,90,100,5.04,CN,1669937491
39,hithadhoo,-0.6,73.0833,-410.908,68,38,3.12,MV,1669937398
40,coahuayana,18.7333,-103.6833,-410.6379999999999,72,21,1.77,MX,1669937492
41,hobart,-42.8794,147.3294,-426.62199999999996,59,20,3.09,AU,1669937334
42,viransehir,37.2353,39.7631,-438.916,68,65,1.61,TR,1669937492
43,dicabisagan,17.0818,122.4157,-411.10599999999994,77,68,3.14,PH,1669937492
44,boa vista,2.8197,-60.6733,-409.2879999999999,61,0,2.06,BR,1669937291
45,victoria,22.2855,114.1577,-432.418,74,100,5.81,HK,1669937301
46,hermanus,-34.4187,19.2345,-430.87,87,40,4.15,ZA,1669937370
47,ushuaia,-54.8,-68.3,-436.61199999999997,47,75,4.63,AR,1669937361
48,maragogi,-9.0122,-35.2225,-413.51800000000003,81,51,5.11,BR,1669937382
49,nanortalik,60.1432,-45.2371,-470.308,73,4,7.17,GL,1669937384
50,mecca,21.4267,39.8261,-415.5879999999999,71,39,1.89,SA,1669937397
51,kapaa,22.0752,-159.319,-407.48799999999994,59,0,7.72,US,1669937364
52,port alfred,-33.5906,26.891,-425.48799999999994,89,48,1.79,ZA,1669937493
53,torbay,47.6666,-52.7314,-445.3959999999999,92,100,14.4,CA,1669937376
54,saint anthony,45.0205,-93.218,-459.7239999999999,64,0,6.17,US,1669937365
55,samarai,-10.6167,150.6667,-408.20799999999997,71,100,1.29,PG,1669937385
56,vila franca do campo,37.7167,-25.4333,-434.0559999999999,72,73,10.56,PT,1669937493
57,blackwater,-23.5833,148.8833,-417.928,49,1,4.01,AU,1669937493
58,tecoanapa,16.5167,-98.75,-410.8539999999999,74,9,3.72,MX,1669937493
59,ilulissat,69.2167,-51.1,-499.01800000000003,83,16,3.89,GL,1669937387
60,norman wells,65.282,-126.8329,-483.034,72,100,6.17,CA,1669937494
61,namatanai,-3.6667,152.4333,-406.1919999999999,66,99,2.32,PG,1669937494
62,neiafu,-18.65,-173.9833,-404.986,79,40,5.14,TO,1669937494
63,yabrud,33.9674,36.6574,-446.38599999999997,78,17,1.83,SY,1669937494
64,avarua,-21.2078,-159.775,-409.216,78,40,5.14,CK,1669937369
65,kahului,20.8947,-156.47,-411.05199999999996,76,40,6.17,US,1669937495
66,beringovskiy,63.05,179.3167,-456.6459999999999,99,100,5.82,RU,1669937371
67,vaini,-21.2,-175.2,-405.508,74,20,3.6,TO,1669937364
68,raudeberg,61.9875,5.1352,-451.8039999999999,65,5,4.29,NO,1669937495
69,barrow,71.2906,-156.7887,-470.45199999999994,93,100,5.66,US,1669937385
70,bredasdorp,-34.5322,20.0403,-429.1239999999999,88,51,3.18,ZA,1669937389
71,hilo,19.7297,-155.09,-407.39799999999997,79,100,4.12,US,1669937367
72,vao,-22.6667,167.4833,-412.79799999999994,86,97,9.62,NC,1669937496
73,dikson,73.5069,80.5464,-465.1239999999999,96,100,6.85,RU,1669937149
74,kavaratti,10.5669,72.642,-411.0879999999999,76,5,0.92,IN,1669937496
75,vakhtan,57.9659,46.6889,-485.39200000000005,99,99,1.2,RU,1669937496
76,tiksi,71.6872,128.8694,-501.50199999999995,96,100,4.89,RU,1669937376
77,sayyan,15.1718,44.3244,-445.01800000000003,44,0,1.45,YE,1669937496
78,baghdad,33.3406,44.4009,-434.55999999999995,94,0,3.09,IQ,1669937497
79,clyde river,70.4692,-68.5914,-515.236,76,100,2.06,CA,1669937379
80,yellowknife,62.456,-114.3525,-513.1479999999999,76,40,2.57,CA,1669937403
81,nhulunbuy,-12.2333,136.7667,-405.058,74,100,2.57,AU,1669937497
82,troitsko-pechorsk,62.7084,56.1964,-505.91200000000003,100,88,1.31,RU,1669937497
83,ozamiz,8.1458,123.8444,-410.0799999999999,82,56,1.59,PH,1669937498
84,nuevo progreso,23.1667,-97.95,-421.7799999999999,72,85,0.89,MX,1669937498
85,saskylakh,71.9167,114.0833,-516.1539999999999,100,92,1.38,RU,1669937498
86,kano,12.0001,8.5167,-420.57399999999996,21,59,3.17,NG,1669937498
87,lagoa,39.05,-27.9833,-434.90199999999993,48,66,12.01,PT,1669937151
88,ponta delgada,37.7333,-25.6667,-433.75,82,20,7.72,PT,1669937499
89,port elizabeth,-33.918,25.5701,-427.35999999999996,95,0,4.12,ZA,1669937373
90,mersing,2.4312,103.8405,-416.55999999999995,94,40,2.57,MY,1669937409
91,aklavik,68.2191,-135.0107,-488.47,85,75,3.09,CA,1669937375
92,gorontalo,0.5412,123.0595,-410.38599999999997,81,94,0.79,ID,1669937499
93,carnarvon,-24.8667,113.6333,-421.63599999999997,74,0,6.1,AU,1669937362
94,morros,-9.4467,-46.3003,-418.7919999999999,91,88,1.79,BR,1669937348
95,saldanha,-33.0117,17.9442,-427.216,85,32,5.5,ZA,1669937390
96,new norfolk,-42.7826,147.0587,-426.96399999999994,51,68,0.89,AU,1669937380
97,bambous virieux,-20.3428,57.7575,-418.01800000000003,78,75,2.06,MU,1669937400
98,beatrice,40.2681,-96.747,-445.17999999999995,39,0,6.69,US,1669937459
99,bolobo,-2.1667,16.2333,-420.808,88,94,0.47,CD,1669937499
100,castro,-24.7911,-50.0119,-427.2339999999999,87,6,0.84,BR,1669937388
101,mehamn,71.0357,27.8492,-457.92399999999986,100,100,2.57,NO,1669937500
102,tyrma,50.0833,132.1667,-506.65,97,100,0.36,RU,1669937500
103,kruisfontein,-34.0033,24.7314,-430.7799999999999,87,5,2.9,ZA,1669937500
104,talnakh,69.4865,88.3972,-490.10799999999995,99,100,1.69,RU,1669937097
105,kununurra,-15.7667,128.7333,-409.2879999999999,57,61,1.54,AU,1669937501
106,balikpapan,-1.2675,116.8289,-415.4799999999999,94,20,2.57,ID,1669937344
107,altamira,-3.2033,-52.2064,-416.19999999999993,91,99,0.97,BR,1669937501
108,marzuq,14.4,46.4667,-430.186,44,0,1.17,YE,1669937501
109,pochutla,15.7432,-96.4661,-407.6499999999999,77,49,1.59,MX,1669937501
110,kifri,34.6959,44.9661,-431.3739999999999,72,1,2.45,IQ,1669937502
111,naze,28.3667,129.4833,-437.15199999999993,84,100,9.42,JP,1669937502
112,kungurtug,50.5994,97.5228,-508.828,100,100,0.09,RU,1669937502
113,nemuro,43.3236,145.575,-462.64,49,39,5.71,JP,1669937502
114,codrington,-38.2667,141.9667,-432.8319999999999,68,11,2.74,AU,1669937205
115,luanda,-8.8368,13.2343,-412.87,83,75,3.6,AO,1669937387
116,kaeo,-35.1,173.7833,-423.3459999999999,78,89,3.31,NZ,1669937503
117,ust-tsilma,65.441,52.1498,-469.65999999999997,96,100,2.68,RU,1669937503
118,sisimiut,66.9395,-53.6735,-482.8539999999999,78,87,7.2,GL,1669937503
119,bujumbura,-3.3822,29.3644,-421.726,92,99,1.56,BI,1669937340
120,genhe,50.7833,121.5167,-499.558,99,100,1.15,CN,1669937504
121,meulaboh,4.1363,96.1285,-417.40599999999995,92,100,1.74,ID,1669937504
122,guerrero negro,27.9769,-114.0611,-429.77199999999993,67,2,5.88,MX,1669937504
123,banepa,27.6298,85.5214,-444.9459999999999,87,20,1.03,NP,1669937504
124,mar del plata,-38.0023,-57.5575,-427.576,88,100,6.69,AR,1669937250
125,kiunga,-6.1219,141.2906,-416.524,94,100,1.56,PG,1669937505
126,ribeira grande,38.5167,-28.7,-434.90199999999993,58,74,6.26,PT,1669937384
127,caravelas,-17.7125,-39.2481,-416.308,90,100,4.44,BR,1669937505
128,viedma,-40.8135,-62.9967,-425.7039999999999,43,0,7.19,AR,1669937321
129,coihaique,-45.5752,-72.0662,-438.1239999999999,62,75,1.54,CL,1669937400
130,prince rupert,54.3161,-130.3201,-465.37600000000003,54,75,5.14,CA,1669937244
131,skibotn,69.3913,20.2679,-461.27199999999993,90,58,2.79,NO,1669937505
132,jalu,29.0331,21.5482,-435.1,45,0,2.47,LY,1669937506
133,maniitsoq,65.4167,-52.9,-475.276,55,53,7.15,GL,1669937506
134,cherskiy,68.75,161.3,-511.294,98,92,2.17,RU,1669937377
135,jonesboro,35.8423,-90.7043,-449.17600000000004,60,0,2.06,US,1669937326
136,dawson creek,55.7666,-120.2362,-508.6299999999999,63,0,0.0,CA,1669937230
137,swan hill,-35.3378,143.5544,-421.6539999999999,49,0,3.34,AU,1669937369
138,hasaki,35.7333,140.8333,-442.462,78,100,5.78,JP,1669937368
139,sao joao da barra,-21.6403,-41.0511,-416.37999999999994,91,100,8.27,BR,1669937352
140,porbandar,21.6422,69.6093,-419.962,49,0,3.42,IN,1669937507
141,arraial do cabo,-22.9661,-42.0278,-416.506,88,75,8.75,BR,1669937395
142,grand gaube,-20.0064,57.6608,-417.87399999999997,76,7,1.34,MU,1669937507
143,qaanaaq,77.484,-69.3632,-517.18,75,3,3.34,GL,1669937068
144,mahebourg,-20.4081,57.7,-417.98199999999997,78,75,2.06,MU,1669937216
145,vanimo,-2.6741,141.3028,-409.8459999999999,81,100,3.23,PG,1669937507
146,aykhal,66.0,111.5,-511.24,100,100,3.31,RU,1669937507
147,laramie,41.3114,-105.5911,-448.1139999999999,44,0,6.17,US,1669937508
148,ingham,42.6,-84.3833,-460.82199999999995,72,0,0.0,US,1669937508
149,oron,4.8256,8.2343,-413.8959999999999,84,95,1.54,NG,1669937508
150,port macquarie,-31.4333,152.9167,-424.78599999999994,79,100,6.37,AU,1669937508
151,silvania,-16.6589,-48.6081,-420.86199999999997,66,63,1.08,BR,1669937509
152,puerto ayora,-0.7393,-90.3518,-422.12199999999996,93,82,3.58,EC,1669937370
153,chebenki,51.9337,55.7077,-485.12199999999996,93,98,3.92,RU,1669937509
154,valpoi,15.5305,74.1356,-416.90199999999993,70,0,1.79,IN,1669937509
155,ulladulla,-35.35,150.4667,-431.878,88,100,3.22,AU,1669937380
156,fortuna,40.5982,-124.1573,-442.012,89,75,2.06,US,1669937400
157,khani,41.9563,42.9566,-449.30199999999996,73,94,2.63,GE,1669937509
158,mangrol,21.1167,70.1167,-419.674,57,0,2.58,IN,1669937510
159,razole,16.4833,81.8333,-418.576,96,10,2.24,IN,1669937510
160,selenduma,50.9131,106.2406,-492.77199999999993,73,60,6.09,RU,1669937510
161,coruripe,-10.1256,-36.1756,-414.21999999999997,83,95,6.67,BR,1669937510
162,kailua,21.4022,-157.7394,-407.48799999999994,59,100,6.17,US,1669937511
163,talakan,50.3167,130.3667,-506.5239999999999,99,100,1.34,RU,1669937511
164,dingle,10.9995,122.6711,-414.562,92,81,4.34,PH,1669937386
165,paramonga,-10.6667,-77.8333,-423.65199999999993,85,15,3.33,PE,1669937511
166,tiarei,-17.5333,-149.3333,-405.65199999999993,81,71,7.23,PF,1669937511
167,tual,-5.6667,132.75,-409.17999999999995,72,100,3.62,ID,1669937512
168,bandar-e lengeh,26.5579,54.8807,-416.9919999999999,63,6,1.26,IR,1669937512
169,kot kapura,30.5833,74.9,-432.3459999999999,31,100,0.98,IN,1669937512
170,okato,-39.2,173.8833,-429.15999999999997,56,50,6.83,NZ,1669937512
171,charleston,32.7766,-79.9309,-441.65199999999993,68,0,1.54,US,1669937345
172,mitsamiouli,-11.3847,43.2844,-413.428,74,9,2.2,KM,1669937513
173,itaituba,-4.2761,-55.9836,-416.974,96,99,0.98,BR,1669937513
174,ostrovnoy,68.0531,39.5131,-465.01599999999996,92,100,5.15,RU,1669937513
175,provideniya,64.3833,-173.3,-455.962,93,100,5.0,RU,1669937364
176,jasper,37.2001,-94.3502,-439.816,27,75,6.69,US,1669937424
177,willowmore,-33.2926,23.4895,-427.936,67,6,1.76,ZA,1669937514
178,hofn,64.2539,-15.2082,-447.34,88,100,5.8,IS,1669937514
179,pedernales,18.0384,-71.744,-412.924,72,9,0.45,DO,1669937514
180,dwarka,22.2394,68.9678,-418.2879999999999,55,0,2.93,IN,1669937514
181,quelimane,-17.8786,36.8883,-418.32399999999996,83,0,0.51,MZ,1669937515
182,bethel,41.3712,-73.414,-452.5959999999999,55,0,3.09,US,1669937381
183,mayumba,-3.432,10.6554,-415.31800000000004,91,100,4.46,GA,1669937515
184,kavieng,-2.5744,150.7967,-407.974,70,95,2.46,PG,1669937207
185,miri,4.4148,114.0089,-418.12600000000003,100,40,0.0,MY,1669937330
186,imeni poliny osipenko,52.4201,136.4853,-509.4039999999999,93,11,1.82,RU,1669937515
187,lebu,-37.6167,-73.65,-436.216,75,0,8.37,CL,1669937400
188,borogontsy,62.6683,131.1683,-521.212,99,100,0.46,RU,1669937515
189,margate,51.3813,1.3862,-443.9739999999999,84,89,0.89,GB,1669937516
190,longyearbyen,78.2186,15.6401,-449.03199999999987,65,75,5.14,SJ,1669937374
191,kamenka,51.3223,42.7678,-469.8039999999999,74,45,2.85,RU,1669937516
192,nago,26.5881,127.9761,-426.424,76,100,8.17,JP,1669937516
193,abu dhabi,24.4667,54.3667,-414.65199999999993,66,0,1.54,AE,1669937348
194,cidreira,-30.1811,-50.2056,-419.6919999999999,94,96,7.13,BR,1669937369
195,parry sound,45.3501,-80.033,-456.01599999999996,64,68,4.36,CA,1669937320
196,saint-pierre,-21.3393,55.4781,-413.1039999999999,64,0,2.57,RE,1669937516
197,luangwa,-15.6167,30.4167,-416.0919999999999,50,86,1.04,ZM,1669937517
198,amapa,1.0,-52.0,-419.43999999999994,98,86,1.29,BR,1669937517
199,inyonga,-6.7167,32.0667,-428.38599999999997,97,100,1.54,TZ,1669937517
200,pevek,69.7008,170.3133,-474.98799999999994,95,98,6.02,RU,1669937394
201,ambon,-3.6954,128.1814,-414.526,94,40,4.12,ID,1669937517
202,sioux lookout,50.1001,-91.917,-473.99799999999993,79,75,3.6,CA,1669937098
203,fort nelson,58.8053,-122.7002,-510.48400000000004,69,40,0.0,CA,1669937518
204,jining,35.405,116.5814,-469.33599999999996,27,14,3.19,CN,1669937385
205,umm kaddadah,13.6017,26.6876,-420.14199999999994,24,59,5.67,SD,1669937518
206,san andres,12.5847,-81.7006,-409.25199999999995,78,20,4.12,CO,1669937518
207,severo-kurilsk,50.6789,156.125,-464.116,73,83,4.56,RU,1669937380
208,lompoc,34.6391,-120.4579,-433.65999999999997,74,100,6.69,US,1669937518
209,kodiak,57.79,-152.4072,-454.756,60,0,5.14,US,1669937361
210,vestmannaeyjar,63.4427,-20.2734,-447.39399999999995,66,100,10.52,IS,1669937519
211,katsuura,35.1333,140.3,-439.726,69,100,5.19,JP,1669937316
212,glenwood springs,39.5505,-107.3248,-440.85999999999996,50,75,10.29,US,1669937519
213,vila velha,-20.3297,-40.2925,-418.32399999999996,98,100,5.66,BR,1669937367
214,miandrivazo,-19.5167,45.4667,-413.91399999999993,78,58,0.63,MG,1669937519
215,la primavera,5.4906,-70.4092,-415.92999999999995,74,58,2.92,CO,1669937520
216,domat,46.8348,9.4508,-453.6039999999999,79,93,1.45,CH,1669937520
217,kaitangata,-46.2817,169.8464,-440.85999999999996,73,42,5.56,NZ,1669937386
218,tromso,69.6496,18.957,-456.05199999999996,93,75,1.03,NO,1669937520
219,rio tercero,-32.173,-64.1141,-415.87600000000003,47,38,3.24,AR,1669937520
220,esna,25.2934,32.554,-430.852,34,0,3.46,EG,1669937521
221,shushtar,32.0455,48.8567,-422.46399999999994,48,0,2.36,IR,1669937449
222,baykit,61.67,96.37,-514.876,98,47,1.2,RU,1669937382
223,port hedland,-20.3167,118.5667,-405.616,70,84,5.14,AU,1669937521
224,atambua,-9.1061,124.8925,-411.66399999999993,65,58,0.49,ID,1669937521
225,nikolskoye,59.7035,30.7861,-475.87,87,99,1.44,RU,1669937522
226,karratha,-20.7377,116.8463,-404.7339999999999,38,64,5.78,AU,1669937409
227,oromocto,45.8351,-66.4792,-459.526,59,20,5.14,CA,1669937522
228,leningradskiy,69.3833,178.4167,-464.83599999999996,83,100,4.0,RU,1669937399
229,dombarovskiy,50.7587,59.5386,-486.65199999999993,87,99,3.91,RU,1669937522
230,ikare,7.4913,5.2322,-420.03399999999993,94,73,1.33,NG,1669937523
231,panaba,21.2833,-88.2667,-414.59799999999996,80,15,6.73,MX,1669937523
232,alofi,-19.0595,-169.9187,-405.77799999999996,74,67,3.6,NU,1669937523
233,nabire,-3.3667,135.4833,-415.55199999999996,92,100,1.03,ID,1669937523
234,juba,4.8517,31.5825,-413.51800000000003,45,100,1.07,SS,1669937524
235,mirabad,30.4362,61.8383,-441.976,60,0,8.39,AF,1669937524
236,xiantao,30.3833,113.4,-457.492,47,61,1.52,CN,1669937524
237,fallon,39.4735,-118.7774,-439.9959999999999,50,75,14.92,US,1669937525
238,the valley,18.217,-63.0578,-411.21399999999994,78,20,2.06,AI,1669937525
239,udachnyy,66.4167,112.4,-512.2299999999999,67,97,2.5,RU,1669937525
240,san quintin,30.4833,-115.95,-432.166,62,87,4.79,MX,1669937526
241,upernavik,72.7868,-56.1549,-493.54599999999994,99,86,8.59,GL,1669937148
242,montepuez,-13.1256,38.9997,-422.17600000000004,87,100,1.47,MZ,1669937526
243,krasnyy chikoy,50.3643,108.7512,-497.308,87,100,5.2,RU,1669937526
244,port lincoln,-34.7333,135.8667,-424.73199999999997,69,0,4.87,AU,1669937366
245,oranjemund,-28.55,16.4333,-429.86199999999997,94,16,4.43,NA,1669937401
246,mayskiy,47.6931,40.1025,-465.66399999999993,44,96,8.42,RU,1669937527
247,bunia,1.5667,30.25,-431.19399999999996,93,81,0.68,CD,1669937527
248,kargasok,59.0556,80.8572,-501.034,99,70,3.29,RU,1669937527
249,cabedelo,-6.9811,-34.8339,-410.4039999999999,74,20,4.67,BR,1669937527
250,qurbus,36.8167,10.5687,-428.72799999999995,62,64,6.86,TN,1669937528
251,koslan,63.4564,48.8989,-475.04200000000003,98,100,1.47,RU,1669937528
252,shimoda,34.6667,138.95,-437.7099999999999,71,91,4.31,JP,1669937528
253,pisco,-13.7,-76.2167,-421.816,78,0,8.23,PE,1669937529
254,ameca,20.55,-104.0333,-417.40599999999995,51,23,0.98,MX,1669937511
255,sangar,63.9242,127.4739,-519.9159999999999,96,100,2.08,RU,1669937529
256,kabalo,-6.05,26.9167,-425.48799999999994,99,100,0.04,CD,1669937529
257,vanavara,60.34,102.2797,-513.508,97,86,2.03,RU,1669937529
258,broome,42.2506,-75.833,-458.662,68,100,4.63,US,1669937530
259,chara,56.9064,118.2631,-515.578,77,91,0.94,RU,1669937391
260,tasiilaq,65.6145,-37.6368,-459.508,73,84,3.22,GL,1669937136
261,lasa,46.6166,10.7002,-453.3879999999999,79,95,0.38,IT,1669937387
262,atuona,-9.8,-139.0333,-413.662,70,9,9.05,PF,1669937364
263,mae sot,16.7167,98.5667,-418.25199999999995,100,20,0.0,TH,1669937530
264,lokosovo,61.1333,74.8167,-506.0379999999999,96,45,2.25,RU,1669937530
265,lososina,48.9975,140.3106,-489.37,61,6,2.75,RU,1669937531
266,east london,-33.0153,27.9116,-420.466,93,83,2.64,ZA,1669937383
267,calderitas,18.55,-88.25,-409.162,78,40,0.0,MX,1669937531
268,hastings,50.8552,0.5729,-445.756,96,93,3.72,GB,1669937446
269,calama,-22.4667,-68.9333,-430.384,11,0,10.8,CL,1669937425
270,ust-kulom,61.6864,53.6902,-492.21399999999994,99,71,1.35,RU,1669937531
271,beidao,34.5686,105.8933,-465.3039999999999,66,80,1.42,CN,1669937532
272,omboue,-1.5746,9.2618,-413.5539999999999,88,100,1.79,GA,1669937274
273,neijiang,29.5835,105.0622,-449.1039999999999,82,100,0.68,CN,1669937532
274,cairns,-16.9167,145.7667,-406.57,63,100,5.14,AU,1669937532
275,sembe,1.6481,14.5806,-421.816,94,82,0.71,CG,1669937532
276,qinzhou,21.95,108.6167,-446.94399999999996,75,100,7.85,CN,1669937533
277,noyabrsk,63.1994,75.4507,-502.3299999999999,89,44,3.92,RU,1669937533
278,bonavista,48.6499,-53.1147,-449.35599999999994,86,100,17.76,CA,1669937392
279,bisira,8.5196,-81.7115,-433.966,94,65,2.46,PA,1669937533
280,lieksa,63.3167,30.0167,-465.28599999999994,96,100,0.48,FI,1669937400
281,hargeysa,9.56,44.065,-431.428,84,6,4.01,SO,1669937534
282,tucuma,-0.1833,-50.05,-414.7419999999999,91,69,2.91,BR,1669937534
283,ahuimanu,21.4447,-157.8378,-407.758,59,100,6.17,US,1669937534
284,seoul,37.5683,126.9778,-469.22799999999995,68,0,1.03,KR,1669937407
285,komagane,35.7296,137.9396,-456.178,51,77,1.4,JP,1669937534
286,kabanga,-2.6386,30.4678,-434.0559999999999,97,100,1.05,TZ,1669937535
287,okhotsk,59.3833,143.3,-495.418,98,100,3.25,RU,1669937535
288,abu zabad,12.35,29.25,-417.316,22,83,5.89,SD,1669937535
289,san jeronimito,17.55,-101.3333,-404.032,66,75,2.57,MX,1669937535
290,warwick,41.7001,-71.4162,-451.4799999999999,52,20,7.72,US,1669937190
291,yerbogachen,61.2767,108.0108,-502.78,92,100,3.31,RU,1669937270
292,bogovarovo,58.9785,47.0246,-479.236,98,100,1.28,RU,1669937536
293,deputatskiy,69.3,139.9,-507.5319999999999,96,100,3.71,RU,1669937368
294,shizunai,42.3339,142.3669,-463.45,51,92,5.78,JP,1669937536
295,nambour,-26.6333,152.95,-419.81800000000004,81,89,1.34,AU,1669937536
296,north myrtle beach,33.816,-78.68,-443.416,67,0,0.0,US,1669937536
297,kidal,18.4411,1.4078,-418.12600000000003,20,77,3.55,ML,1669937537
298,dunedin,-45.8742,170.5036,-440.85999999999996,72,38,7.6,NZ,1669937537
299,mount gambier,-37.8333,140.7667,-426.352,49,6,2.44,AU,1669937404
300,charters towers,-20.1,146.2667,-415.33599999999996,51,100,4.39,AU,1669937537
301,mbala,-8.8402,31.3659,-431.4459999999999,92,100,0.75,ZM,1669937440
302,poya,-21.35,165.15,-402.96999999999997,61,99,2.62,NC,1669937538
303,cabo san lucas,22.8909,-109.9124,-408.1719999999999,73,20,2.06,MX,1669937467
304,fort morgan,40.2503,-103.8,-433.2459999999999,37,0,0.0,US,1669937538
305,plouzane,48.3833,-4.6167,-450.616,93,34,1.54,FR,1669937140
306,yulara,-25.2406,130.9889,-405.86800000000005,14,0,4.6,AU,1669937538
307,sheboygan,43.7333,-87.9334,-458.08599999999996,64,0,4.63,US,1669937538
308,levanger,63.7464,11.2996,-466.816,74,4,2.16,NO,1669937539
309,millinocket,45.6573,-68.7098,-461.2539999999999,59,75,5.66,US,1669937539
310,san lorenzo,-25.3333,-57.5333,-413.7339999999999,78,20,3.6,PY,1669937361
311,palm beach,26.6503,-80.4498,-413.662,72,95,5.72,US,1669937352
312,la ronge,55.1001,-105.2842,-500.818,70,75,4.12,CA,1669937267
313,chapleau,47.8405,-83.4034,-468.5799999999999,74,75,1.54,CA,1669937256
314,beloha,-25.1667,45.05,-420.718,90,90,3.1,MG,1669937539
315,hay river,60.8156,-115.7999,-506.48799999999994,76,40,3.6,CA,1669937424
316,manzhouli,49.6,117.4333,-495.49,90,78,4.56,CN,1669937540
317,davila,18.4726,120.5763,-420.0879999999999,72,28,6.39,PH,1669937540
318,avera,33.194,-82.5271,-446.116,46,95,2.98,US,1669937540
319,biak,-0.9131,122.8766,-411.78999999999996,75,99,1.02,ID,1669937541
320,mangai,-4.05,19.5333,-423.65199999999993,97,100,0.46,CD,1669937541
321,ambatofinandrahana,-20.55,46.8,-430.54599999999994,81,50,0.89,MG,1669937541
322,wajir,1.7471,40.0573,-412.0419999999999,65,100,4.91,KE,1669937541
323,olinda,-8.0089,-34.8553,-411.34,69,40,2.57,BR,1669937542
324,souillac,-20.5167,57.5167,-417.89199999999994,78,75,2.06,MU,1669937542
325,sikasso,10.9167,-7.0,-412.34799999999996,30,82,1.21,ML,1669937542
326,kuching,1.55,110.3333,-409.64799999999997,95,20,1.54,MY,1669937542
327,zaraza,9.3503,-65.3245,-417.89199999999994,83,12,3.14,VE,1669937543
328,villa rica,33.7321,-84.9191,-442.066,68,100,2.09,US,1669937543
329,tacuarembo,-31.7333,-55.9833,-421.2219999999999,84,35,7.6,UY,1669937543
330,hun,29.1268,15.9477,-436.80999999999995,40,43,3.44,LY,1669937543
331,wiarton,44.7407,-81.1332,-459.21999999999997,69,100,4.12,CA,1669937544
332,cockburn town,21.4612,-71.1419,-411.628,67,0,10.15,TC,1669937440
333,khatanga,71.9667,102.5,-481.2879999999999,95,99,5.53,RU,1669937410
334,karnobat,42.65,26.9833,-452.6319999999999,91,100,2.47,BG,1669937544
335,sovetskiy,61.3614,63.5842,-499.95399999999995,99,14,1.48,RU,1669937544
336,awjilah,29.1081,21.2869,-435.3879999999999,43,0,2.44,LY,1669937545
337,kousseri,12.0769,15.0306,-418.09,33,86,3.85,CM,1669937545
338,bitkine,11.9801,18.2138,-416.5419999999999,23,88,3.38,TD,1669937545
339,bengkulu,-3.8004,102.2655,-416.9919999999999,89,100,1.51,ID,1669937099
340,correntina,-13.3433,-44.6367,-421.23999999999995,92,54,1.79,BR,1669937546
341,san policarpo,12.1791,125.5072,-410.29599999999994,83,100,7.33,PH,1669937546
342,novoagansk,61.9449,76.6625,-504.11199999999997,93,44,2.39,RU,1669937546
343,namibe,-15.1961,12.1522,-421.2219999999999,76,100,2.95,AO,1669937547
344,lambarene,-0.7001,10.2406,-416.326,93,100,1.1,GA,1669937547
345,nouakchott,18.0858,-15.9785,-422.19399999999996,69,63,5.85,MR,1669937547
346,dodge city,37.7528,-100.0171,-436.73799999999994,40,0,9.26,US,1669937547
347,aden,12.7794,45.0367,-413.37399999999997,75,1,5.22,YE,1669937548
348,tabing,11.4,124.35,-410.87199999999996,82,81,5.08,PH,1669937548
349,sur,22.5667,59.5289,-418.558,48,81,2.6,OM,1669937372
350,salalah,17.0151,54.0924,-418.17999999999995,73,0,1.54,OM,1669937378
351,camacupa,-12.0167,17.4833,-431.8239999999999,97,99,1.46,AO,1669937548
352,grindavik,63.8424,-22.4338,-448.92399999999986,81,75,10.29,IS,1669937548
353,shahrud,36.4182,54.9763,-450.79599999999994,86,65,2.9,IR,1669937549
354,vavozh,56.7751,51.931,-497.884,100,57,1.57,RU,1669937549
355,carutapera,-1.195,-46.02,-412.366,81,66,4.51,BR,1669937549
356,rio claro,-22.4114,-47.5614,-419.43999999999994,74,84,0.83,BR,1669937549
357,kabanjahe,3.1001,98.4908,-429.48400000000004,93,100,0.94,ID,1669937550
358,czestochowa,50.7965,19.1241,-458.59,75,99,3.49,PL,1669937550
359,sao felix do xingu,-6.6447,-51.995,-417.80199999999996,97,75,0.73,BR,1669937349
360,cayenne,4.9333,-52.3333,-411.03399999999993,78,75,1.54,GF,1669937550
361,benghazi,32.1167,20.0667,-428.008,64,22,3.87,LY,1669937550
362,nome,64.5011,-165.4064,-468.59799999999996,86,100,6.17,US,1669937295
363,hami,42.8,93.45,-475.726,22,100,0.91,CN,1669937551
364,havoysund,70.9963,24.6622,-454.03599999999994,91,99,3.2,NO,1669937278
365,kuito,-12.3833,16.9333,-433.15599999999995,94,80,1.68,AO,1669937551
366,krasnogorsk,55.8225,37.3181,-479.128,85,100,4.0,RU,1669937551
367,brae,60.3964,-1.353,-443.776,91,100,11.67,GB,1669937552
368,tarauaca,-8.1614,-70.7656,-411.34,72,46,1.81,BR,1669937552
369,kupang,-10.1667,123.5833,-410.49399999999997,89,20,1.03,ID,1669937552
370,bereda,43.2686,-7.5406,-450.256,100,13,1.13,ES,1669937374
371,flinders,-34.5833,150.8552,-423.48999999999995,76,95,1.79,AU,1669937396
372,camabatela,-8.1881,15.375,-429.466,98,100,0.16,AO,1669937553
373,ancud,-41.8697,-73.8203,-439.43799999999993,68,98,2.96,CL,1669937371
374,eenhana,-17.4667,16.3333,-416.91999999999996,31,5,1.96,NA,1669937553
375,kibala,9.1104,18.3463,-411.628,29,90,1.18,TD,1669937553
376,ola,59.5833,151.2833,-472.378,68,100,4.8,RU,1669937553
377,shitanjing,39.2342,106.3439,-471.64,36,89,6.87,CN,1669937554
378,usolye,59.4268,56.6808,-490.702,98,10,0.88,RU,1669937554
379,ilhabela,-23.7781,-45.3581,-417.06399999999996,95,78,3.6,BR,1669937554
380,umm lajj,25.0213,37.2685,-416.794,55,9,4.42,SA,1669937372
381,menongue,-14.6585,17.691,-425.416,68,16,1.93,AO,1669937399
382,quatre cocos,-20.2078,57.7625,-418.162,77,34,2.74,MU,1669937555
383,denpasar,-8.65,115.2167,-411.412,83,40,0.51,ID,1669937555
384,mahon,39.8885,4.2658,-439.312,82,0,2.06,ES,1669937555
385,lavrentiya,65.5833,-171.0,-459.09399999999994,99,100,5.58,RU,1669937555
386,filadelfia,39.9523,-75.1638,-452.45199999999994,53,0,5.14,US,1669937554
387,chanderi,24.7167,78.1333,-437.566,41,0,1.11,IN,1669937556
388,tarakan,3.3,117.6333,-413.77,84,92,2.02,ID,1669937556
389,moose factory,51.2585,-80.6094,-477.66999999999996,79,75,8.23,CA,1669937556
390,santa isabel,-23.3156,-46.2214,-413.57199999999995,95,51,1.34,BR,1669937556
391,lata,40.1629,-8.3327,-449.59,74,0,1.86,PT,1669937557
392,tura,25.5198,90.2201,-431.716,78,0,1.64,IN,1669937390
393,pacific grove,36.6177,-121.9166,-441.0039999999999,90,100,4.92,US,1669937181
394,sydney,-33.8679,151.2073,-421.312,63,75,5.66,AU,1669937373
395,oranjestad,12.524,-70.027,-411.12399999999997,85,20,5.14,AW,1669937557
396,makakilo city,21.3469,-158.0858,-408.9459999999999,57,20,5.14,US,1669937557
397,balve,51.3333,7.8667,-455.62,97,100,2.06,DE,1669937557
398,agua verde,22.9,-106.05,-410.9799999999999,73,49,1.57,MX,1669937558
399,bayir,37.2687,28.2167,-444.74799999999993,94,7,2.23,TR,1669937558
400,taoudenni,22.6783,-3.9836,-426.352,13,24,1.56,ML,1669937558
401,paamiut,61.994,-49.6678,-476.14,59,38,3.23,GL,1669937558
402,kalmunai,7.4167,81.8167,-415.1919999999999,87,94,1.31,LK,1669937559
403,bolshaya glushitsa,50.2406,43.5908,-472.01800000000003,88,75,2.74,RU,1669937559
404,derzhavinsk,51.1,66.3167,-485.24799999999993,80,100,7.72,KZ,1669937559
405,southbridge,42.0751,-72.0334,-453.74799999999993,64,23,1.79,US,1669937560
406,tilichiki,60.4667,166.1,-481.5039999999999,96,95,1.35,RU,1669937560
407,sorland,67.667,12.6934,-454.41399999999993,78,91,3.46,NO,1669937394
408,kathu,7.9178,98.3332,-406.92999999999995,85,100,3.7,TH,1669937560
409,bridgetown,13.1,-59.6167,-410.58399999999995,74,40,8.23,BB,1669937561
410,bar harbor,44.3876,-68.2039,-455.692,58,75,8.94,US,1669937561
411,chicama,-7.8447,-79.1469,-426.7299999999999,79,16,2.93,PE,1669937561
412,abu samrah,35.3029,37.1841,-438.628,81,2,1.02,SY,1669937562
413,pali,25.7667,73.3333,-431.05,35,0,2.75,IN,1669937562
414,vysokogornyy,50.1167,139.15,-500.548,87,100,5.73,RU,1669937562
415,madingou,-4.1536,13.55,-419.15199999999993,95,93,0.68,CG,1669937562
416,nizhniy kuranakh,58.8353,125.4869,-503.2299999999999,94,100,4.25,RU,1669937563
417,bad freienwalde,52.7873,14.0304,-456.21399999999994,96,95,0.89,DE,1669937563
418,petropavlovsk-kamchatskiy,53.0452,158.6483,-477.076,86,75,1.0,RU,1669937276
419,constitucion,-35.3333,-72.4167,-436.198,76,0,6.48,CL,1669937564
420,nishihara,26.1842,127.7558,-424.39,81,100,8.75,JP,1669937405
421,lahaina,20.8783,-156.6825,-410.72799999999995,88,58,4.68,US,1669937360
422,barabai,-2.5833,115.3833,-413.93199999999996,89,96,0.11,ID,1669937564
423,puerto gaitan,4.3133,-72.0816,-414.68799999999993,75,49,2.62,CO,1669937564
424,nouadhibou,20.931,-17.0347,-427.2879999999999,72,80,6.69,MR,1669937098
425,billings,45.7833,-108.5007,-458.3739999999999,65,40,5.66,US,1669937462
426,chifeng,42.2683,118.9636,-478.78599999999994,31,67,2.48,CN,1669937564
427,dezful,32.3811,48.4058,-424.04799999999994,48,0,2.09,IR,1669937565
428,portland,45.5234,-122.6762,-448.726,79,40,5.66,US,1669937221
429,port blair,11.6667,92.75,-412.0419999999999,83,62,3.08,IN,1669937397
430,sibolga,1.7427,98.7792,-416.93799999999993,90,100,0.61,ID,1669937565
431,arman,59.7,150.1667,-475.74399999999997,91,100,1.64,RU,1669937565
432,georgetown,5.4112,100.3354,-411.42999999999995,83,20,1.54,MY,1669937164
433,bud,39.447,-86.1758,-457.34799999999996,69,62,3.09,US,1669937566
434,rio gallegos,-51.6226,-69.2181,-425.416,27,0,5.66,AR,1669937566
435,tashtyp,52.7939,89.8983,-499.4680000000001,97,99,0.31,RU,1669937566
436,opuwo,-18.0607,13.84,-420.23199999999997,52,38,2.75,NA,1669937566
437,lokomotivnyy,53.0118,60.5684,-487.948,90,100,4.77,RU,1669937567
438,vanderhoof,54.0166,-124.0198,-495.9219999999999,93,30,1.82,CA,1669937425
439,longyan,25.1072,117.0225,-444.658,97,100,1.67,CN,1669937567
440,japura,-0.3167,102.35,-419.026,99,100,1.01,ID,1669937567
441,russell,32.3502,-85.1999,-436.666,40,0,1.54,US,1669937375
442,umea,63.8284,20.2597,-462.76599999999996,100,100,0.0,SE,1669937568
443,xiangxiang,27.7333,112.5333,-458.5,77,87,0.59,CN,1669937568
444,kristiinankaupunki,62.2743,21.376,-462.658,92,100,2.49,FI,1669937568
445,airai,-8.9266,125.4092,-425.974,63,27,0.59,TL,1669937363
446,pitimbu,-7.4706,-34.8086,-410.476,80,50,4.61,BR,1669937568
447,seminole,28.7086,-81.2081,-420.412,76,75,5.14,US,1669937347
448,gazanjyk,39.2446,55.5154,-452.578,25,100,5.86,TM,1669937569
449,mazatlan,23.2167,-106.4167,-411.10599999999994,87,75,4.12,MX,1669937324
450,balaguer,41.7912,0.8109,-450.99399999999997,96,1,1.65,ES,1669937569
451,marawi,7.9986,124.2928,-417.8379999999999,85,98,1.0,PH,1669937569
452,havelock,34.8791,-76.9013,-442.73199999999986,69,0,1.54,US,1669937173
453,haradok,55.4624,29.9816,-470.36199999999997,91,82,3.25,BY,1669937570
454,byron bay,-28.65,153.6167,-420.718,75,83,9.57,AU,1669937515
455,gornopravdinsk,60.05,69.9,-506.0559999999999,95,20,0.45,RU,1669937570
456,pokosnoye,55.5258,101.0536,-498.6039999999999,90,100,4.64,RU,1669937570
457,chapais,49.7834,-74.8492,-472.486,89,100,6.42,CA,1669937403
458,barcelos,41.5388,-8.6151,-440.8239999999999,69,8,2.63,PT,1669937326
459,blagoveshchensk,50.2667,127.5333,-511.25800000000004,76,0,1.0,RU,1669937571
460,praia,14.9215,-23.5087,-419.044,68,96,6.23,CV,1669937571
461,adrar,20.5022,-10.0711,-423.544,20,0,3.61,MR,1669937571
462,agen,44.2,0.6333,-448.7799999999999,93,100,1.03,FR,1669937571
463,malakal,9.5334,31.6605,-413.01399999999995,32,17,2.42,SS,1669937572
464,pitea,65.3172,21.4794,-464.9799999999999,90,99,0.57,SE,1669937572
465,la sarre,48.8002,-79.1996,-473.044,84,100,4.24,CA,1669937572
466,sitka,57.0531,-135.33,-461.578,80,100,6.69,US,1669937572
467,mount isa,-20.7333,139.5,-405.9039999999999,26,0,4.12,AU,1669937573
468,linxia,35.6003,103.2064,-468.634,37,42,0.82,CN,1669937573
469,hualmay,-11.0964,-77.6139,-423.508,83,9,3.73,PE,1669937573
470,panambi,-28.2925,-53.5017,-413.08599999999996,46,43,2.15,BR,1669937574
471,tiznit,29.5833,-9.5,-435.82,86,98,1.0,MA,1669937574
472,fomboni,-12.28,43.7425,-411.89799999999997,70,5,2.89,KM,1669937574
473,isangel,-19.55,169.2667,-405.562,74,85,4.63,VU,1669937575
474,san cristobal,7.7669,-72.225,-423.48999999999995,96,24,1.75,VE,1669937575
475,wakkanai,45.4094,141.6739,-467.5,69,100,11.56,JP,1669937575
476,vardo,70.3705,31.1107,-457.8879999999999,86,100,1.54,NO,1669937576
477,northam,51.0333,-4.2167,-451.22799999999995,87,14,2.94,GB,1669937576
478,newport,51.5877,-2.9984,-451.92999999999995,75,18,1.75,GB,1669937399
479,aguimes,27.9054,-15.4461,-426.64,77,40,2.06,ES,1669937576
480,kendari,-3.945,122.4989,-413.32,85,97,0.95,ID,1669937576
481,shelburne,44.0787,-80.2041,-461.02,83,67,4.24,CA,1669937577
482,dutlwe,-23.9833,23.9,-414.86800000000005,31,68,3.25,BW,1669937577
483,kenai,60.5544,-151.2583,-476.51800000000003,85,0,1.54,US,1669937577
484,taihe,30.8712,105.3845,-449.392,81,99,0.99,CN,1669937577
485,barao de melgaco,-16.1944,-55.9675,-418.2339999999999,86,99,1.42,BR,1669937578
486,lahij,13.1667,44.5833,-421.79799999999994,80,0,1.57,YE,1669937578
487,reynosa,26.0833,-98.2833,-430.816,75,100,4.12,MX,1669937419
488,balkhash,46.844,74.9804,-475.762,95,99,2.03,KZ,1669937578
489,paveh,35.0434,46.3565,-445.8819999999999,71,8,2.28,IR,1669937578
490,gafanha da encarnacao,40.6181,-8.733,-447.60999999999996,90,1,3.37,PT,1669937579
491,college,64.8569,-147.8028,-486.3459999999999,86,75,2.06,US,1669937376
492,inirida,3.8653,-67.9239,-413.62600000000003,79,43,2.01,CO,1669937370
493,saint george,37.1041,-113.5841,-437.242,37,20,0.45,US,1669937102
494,mayor pablo lagerenza,-19.9309,-60.7718,-416.866,66,81,0.96,PY,1669937579
495,kondinskoye,59.6481,67.41,-506.41599999999994,93,10,0.39,RU,1669937579
496,ogbomosho,8.133,4.25,-415.57,80,98,1.79,NG,1669937579
497,mountain home,43.133,-115.6912,-456.592,87,100,9.77,US,1669937580
498,hella,67.2,14.4333,-457.726,79,0,6.69,NO,1669937580
499,zyryanka,65.75,150.85,-519.3039999999999,95,81,3.58,RU,1669937580
500,skjervoy,70.0311,20.9714,-459.66999999999996,75,97,3.61,NO,1669937580
501,simao,22.7886,100.9748,-435.67600000000004,99,68,0.54,CN,1669937392
502,chaiya,9.3862,99.1986,-411.4839999999999,82,97,0.17,TH,1669937581
503,mabaruma,8.2,-59.7833,-419.008,92,11,1.24,GY,1669937581
504,keti bandar,24.1447,67.4497,-419.72799999999995,45,2,3.05,PK,1669937581
505,fort-shevchenko,44.5086,50.263,-460.51599999999996,39,1,5.45,KZ,1669937582
506,leninkent,42.9689,47.352,-448.3299999999999,75,92,6.31,RU,1669937582
507,zharkent,44.1628,80.0,-466.04200000000003,85,79,2.29,KZ,1669937582
508,san patricio,28.017,-97.5169,-429.1959999999999,85,99,5.94,US,1669937582
509,geraldton,-28.7667,114.6,-423.256,73,100,2.57,AU,1669937179
510,flin flon,54.7682,-101.865,-499.4319999999999,71,100,3.09,CA,1669937583
511,honiara,-9.4333,159.95,-408.98199999999997,80,96,2.15,SB,1669937583
512,los llanos de aridane,28.6585,-17.9182,-427.52199999999993,87,0,1.79,ES,1669937583
513,bonfim,3.0833,-59.95,-411.628,67,63,3.32,BR,1669937584
514,morris,40.8334,-74.5329,-454.71999999999997,60,0,2.57,US,1669937465
515,kuldur,49.2167,131.6333,-502.1139999999999,98,100,0.18,RU,1669937584
516,omsukchan,62.5333,155.8,-503.4459999999999,100,99,2.94,RU,1669937584
517,chimbote,-9.0853,-78.5783,-424.26399999999995,84,6,3.35,PE,1669937584
518,karacabey,40.2152,28.4038,-444.892,82,52,1.29,TR,1669937585
519,goderich,43.7501,-81.7165,-458.75199999999995,69,72,4.12,CA,1669937585
520,buin,-33.7333,-70.75,-413.24799999999993,42,0,2.34,CL,1669937585
521,boyuibe,-20.4167,-63.2833,-425.1459999999999,90,99,2.74,BO,1669937586
522,corovode,40.5042,20.2272,-442.8039999999999,87,96,1.54,AL,1669937586
523,kulhudhuffushi,6.6221,73.07,-412.276,77,45,1.72,MV,1669937586
524,la asuncion,11.0333,-63.8628,-413.14,89,2,4.63,VE,1669937587
525,vila do maio,15.1333,-23.2167,-417.47799999999995,65,97,6.87,CV,1669937587
526,ornskoldsvik,63.2909,18.7153,-458.716,100,100,1.54,SE,1669937587
527,esperance,-33.8667,121.9,-427.666,81,100,5.93,AU,1669937363
528,moree,-29.4667,149.85,-415.8039999999999,36,0,5.13,AU,1669937587
529,berlevag,70.8578,29.0864,-457.87,86,100,3.09,NO,1669937393
530,trelew,-43.249,-65.3051,-414.2919999999999,22,40,8.7,AR,1669937588
531,rafaela,-31.2503,-61.4867,-415.6959999999999,42,100,2.24,AR,1669937419
532,srivardhan,18.0333,73.0167,-421.0419999999999,44,22,2.53,IN,1669937588
533,assiniboia,49.6334,-105.9845,-488.65,78,100,6.17,CA,1669937588
534,faya,18.3851,42.4509,-437.962,66,20,0.46,SA,1669937589
535,santa ana,33.7456,-117.8678,-430.92399999999986,60,40,4.12,US,1669937589
536,okha,53.5739,142.9478,-493.90599999999995,89,81,7.85,RU,1669937589
537,kautokeino,69.0125,23.0412,-462.892,97,100,1.55,NO,1669937589
538,yenagoa,4.9247,6.2642,-414.418,87,100,1.42,NG,1669937590
539,jasrana,27.25,78.6833,-432.29200000000003,47,30,0.61,IN,1669937590
540,dharchula,29.85,80.5333,-438.66399999999993,19,53,3.24,IN,1669937590
541,tessalit,20.1986,1.0114,-420.2499999999999,20,93,1.94,ML,1669937591
542,turan,16.0678,108.2208,-414.68799999999993,88,75,4.12,VN,1669937575
543,celestun,20.8667,-90.4,-412.168,79,14,8.06,MX,1669937591
544,noshiro,40.2039,140.0242,-460.642,81,100,7.16,JP,1669937591
545,leh,34.1667,77.5833,-468.14799999999997,42,99,1.15,IN,1669937592
546,ucluelet,48.9329,-125.5528,-453.96399999999994,85,3,1.25,CA,1669937592
547,chulman,56.8479,124.9104,-510.84399999999994,99,100,1.32,RU,1669937592
548,atar,20.5169,-13.0499,-421.43799999999993,18,18,2.91,MR,1669937360
549,russkoye,45.0167,34.8,-453.62199999999996,83,94,1.47,UA,1669937593
550,wynyard,-41.0,145.7167,-429.6819999999999,63,77,3.31,AU,1669937454
551,pangoa,-12.1167,-73.0,-421.3299999999999,98,48,1.19,PE,1669937593
552,huarmey,-10.0681,-78.1522,-422.986,83,9,3.55,PE,1669937593
553,tuy hoa,13.0833,109.3,-416.4339999999999,92,100,1.85,VN,1669937594
554,poronaysk,49.2167,143.1167,-483.376,70,36,4.6,RU,1669937594
555,dolinsk,47.35,142.8,-476.08599999999996,78,52,5.32,RU,1669937594
556,andenes,69.3143,16.1194,-452.73999999999995,93,100,2.06,NO,1669937594
557,suntar,62.1444,117.6319,-499.216,96,100,3.4,RU,1669937595
558,royan,45.6285,-1.0281,-449.878,73,99,5.19,FR,1669937595
559,galesong,-5.3166,119.3661,-414.65199999999993,76,92,2.11,ID,1669937595
560,fairbanks,64.8378,-147.7164,-486.328,85,75,2.06,US,1669937595
561,chilpancingo,17.55,-99.5,-423.3459999999999,61,10,1.59,MX,1669937596
562,kita,13.0349,-9.4895,-411.23199999999997,22,43,1.51,ML,1669937596
563,caledon,-34.23,19.4265,-433.60599999999994,92,40,2.53,ZA,1669937424
564,illapel,-31.6308,-71.1653,-426.51399999999995,69,0,1.76,CL,1669937596
565,anse-bertrand,16.4721,-61.5078,-414.8499999999999,74,3,7.47,GP,1669937596
566,lipari,38.4674,14.954,-439.34799999999996,63,28,1.73,IT,1669937597
567,tomatlan,19.9333,-105.25,-412.276,76,12,2.02,MX,1669937494
568,sept-iles,50.2001,-66.3821,-460.948,80,100,7.2,CA,1669937540
569,buraydah,26.326,43.975,-428.62,66,3,4.0,SA,1669937597
570,kathmandu,27.7167,85.3167,-443.2539999999999,87,20,1.03,NP,1669937322
571,cozumel,20.5083,-86.9458,-409.198,82,40,5.36,MX,1669937538
572,xinqing,48.2333,129.5,-498.1719999999999,90,95,3.39,CN,1669937598
573,manggar,-2.8833,108.2667,-415.12,90,100,3.88,ID,1669937598
574,nhamunda,-2.1861,-56.7131,-413.986,84,89,0.91,BR,1669937598
575,san-pedro,4.7485,-6.6363,-413.4459999999999,84,100,2.07,CI,1669937598
576,ahipara,-35.1667,173.1667,-428.20599999999996,70,91,4.72,NZ,1669937399
